{"type":"FeatureCollection","features":[{"type":"Feature","id":"MUSEUMOGD.100253","geometry":{"type":"Point","coordinates":[16.388118,48.16234508]},"geometry_name":"SHAPE","properties":{"NAME":"FK Austria Wien Museum","BEZIRK":10,"ADRESSE":"10., Horrplatz 1","WEITERE_INF":"http://www.fk-austria.at","SE_SDO_ROWID":100253,"SE_ANNO_CAD_DATA":null}},{"type":"Feature","id":"MUSEUMOGD.100254","geometry":{"type":"Point","coordinates":[16.40144322,48.26193871]},"geometry_name":"SHAPE","properties":{"NAME":"Marktamtsmuseum","BEZIRK":21,"ADRESSE":"21., Floridsdorfer Markt 5","WEITERE_INF":"https://www.wien.gv.at/freizeit/einkaufen/maerkte/geschichte/marktamtsmuseum.html","SE_SDO_ROWID":100254,"SE_ANNO_CAD_DATA":null}},{"type":"Feature","id":"MUSEUMOGD.100255","geometry":{"type":"Point","coordinates":[16.36570302,48.20946719]},"geometry_name":"SHAPE","properties":{"NAME":"Österreichische Nationalbibliothek Musiksammlung","BEZIRK":1,"ADRESSE":"01., Herrengasse 9 / Zugang: Palais Mollard","WEITERE_INF":"https://www.onb.ac.at/bibliothek/sammlungen/musik","SE_SDO_ROWID":100255,"SE_ANNO_CAD_DATA":null}},{"type":"Feature","id":"MUSEUMOGD.100256","geometry":{"type":"Point","coordinates":[16.34206481,48.1894914]},"geometry_name":"SHAPE","properties":{"NAME":"Sanitärhistorisches Museum","BEZIRK":6,"ADRESSE":"06., Mollardgasse 87","WEITERE_INF":"https://www.wien.gv.at/ma53/museen/san-his.htm","SE_SDO_ROWID":100256,"SE_ANNO_CAD_DATA":null}},{"type":"Feature","id":"MUSEUMOGD.101121","geometry":{"type":"Point","coordinates":[16.3684663,48.20565]},"geometry_name":"SHAPE","properties":{"NAME":"Theatermuseum","BEZIRK":1,"ADRESSE":"01., Lobkowitzplatz 2","WEITERE_INF":"http://www.theatermuseum.at","SE_SDO_ROWID":101121,"SE_ANNO_CAD_DATA":null}},{"type":"Feature","id":"MUSEUMOGD.101122","geometry":{"type":"Point","coordinates":[16.322058,48.18355074]},"geometry_name":"SHAPE","properties":{"NAME":"Zauberkasten Museum","BEZIRK":12,"ADRESSE":"12., Schönbrunner Straße 262","WEITERE_INF":"http://www.zauberkasten-museum.at/","SE_SDO_ROWID":101122,"SE_ANNO_CAD_DATA":null}},{"type":"Feature","id":"MUSEUMOGD.101123","geometry":{"type":"Point","coordinates":[16.35962549,48.19500856]},"geometry_name":"SHAPE","properties":{"NAME":"Margarete Schütte-Lihotzky Zentrum","BEZIRK":5,"ADRESSE":"05., Franzensgasse 16/40","WEITERE_INF":"https://www.schuette-lihotzky.at/","SE_SDO_ROWID":101123,"SE_ANNO_CAD_DATA":null}},{"type":"Feature","id":"MUSEUMOGD.101124","geometry":{"type":"Point","coordinates":[16.36568162,48.20939569]},"geometry_name":"SHAPE","properties":{"NAME":"Globenmuseum","BEZIRK":1,"ADRESSE":"01., Palais Mollard, Herrengasse 9","WEITERE_INF":"https://www.onb.ac.at/museen/globenmuseum/","SE_SDO_ROWID":101124,"SE_ANNO_CAD_DATA":null}},{"type":"Feature","id":"MUSEUMOGD.101125","geometry":{"type":"Point","coordinates":[16.37263868,48.2047847]},"geometry_name":"SHAPE","properties":{"NAME":"Literaturmuseum der Österreichischen Nationalbibliothek","BEZIRK":1,"ADRESSE":"01., Johannesgasse 6","WEITERE_INF":"https://www.onb.ac.at/museen/literaturmuseum/","SE_SDO_ROWID":101125,"SE_ANNO_CAD_DATA":null}},{"type":"Feature","id":"MUSEUMOGD.101126","geometry":{"type":"Point","coordinates":[16.3327288,48.15099559]},"geometry_name":"SHAPE","properties":{"NAME":"SchokoMuseum","BEZIRK":23,"ADRESSE":"23., Willendorfergasse 2-8","WEITERE_INF":"https://schokomuseum.at","SE_SDO_ROWID":101126,"SE_ANNO_CAD_DATA":null}},{"type":"Feature","id":"MUSEUMOGD.101127","geometry":{"type":"Point","coordinates":[16.35076911,48.21575627]},"geometry_name":"SHAPE","properties":{"NAME":"Viktor Frankl Museum Wien","BEZIRK":9,"ADRESSE":"09., Mariannengasse 1/15","WEITERE_INF":"https://www.franklzentrum.org","SE_SDO_ROWID":101127,"SE_ANNO_CAD_DATA":null}},{"type":"Feature","id":"MUSEUMOGD.101128","geometry":{"type":"Point","coordinates":[16.36774037,48.20379052]},"geometry_name":"SHAPE","properties":{"NAME":"Heidi Horten Collection","BEZIRK":1,"ADRESSE":"01., Hanuschgasse 3","WEITERE_INF":"https://hortencollection.com","SE_SDO_ROWID":101128,"SE_ANNO_CAD_DATA":null}},{"type":"Feature","id":"MUSEUMOGD.101129","geometry":{"type":"Point","coordinates":[16.38794248,48.18506439]},"geometry_name":"SHAPE","properties":{"NAME":"Heeresgeschichtliches Museum","BEZIRK":3,"ADRESSE":"03., Arsenal, Objekt 1","WEITERE_INF":"https://www.hgm.at","SE_SDO_ROWID":101129,"SE_ANNO_CAD_DATA":null}},{"type":"Feature","id":"MUSEUMOGD.101130","geometry":{"type":"Point","coordinates":[16.31182317,48.18512537]},"geometry_name":"SHAPE","properties":{"NAME":"Kindermuseum Schloss Schönbrunn","BEZIRK":13,"ADRESSE":"13., Schönbrunner Schlossstraße","WEITERE_INF":"https://www.kindermuseumschoenbrunn.at/","SE_SDO_ROWID":101130,"SE_ANNO_CAD_DATA":null}},{"type":"Feature","id":"MUSEUMOGD.101131","geometry":{"type":"Point","coordinates":[16.37175869,48.2064182]},"geometry_name":"SHAPE","properties":{"NAME":"Mythos Mozart","BEZIRK":1,"ADRESSE":"01., Kärntner Straße 19","WEITERE_INF":"https://mythos-mozart.com/de/","SE_SDO_ROWID":101131,"SE_ANNO_CAD_DATA":null}},{"type":"Feature","id":"MUSEUMOGD.101132","geometry":{"type":"Point","coordinates":[16.37275126,48.19935126]},"geometry_name":"SHAPE","properties":{"NAME":"Wien Museum Karlsplatz","BEZIRK":4,"ADRESSE":"04., Karlsplatz 8","WEITERE_INF":"http://www.wienmuseum.at/","SE_SDO_ROWID":101132,"SE_ANNO_CAD_DATA":null}},{"type":"Feature","id":"MUSEUMOGD.101133","geometry":{"type":"Point","coordinates":[16.3657079,48.2077141]},"geometry_name":"SHAPE","properties":{"NAME":"Kaiserappartements","BEZIRK":1,"ADRESSE":"01., Hofburg","WEITERE_INF":"http://www.sisimuseum-hofburg.at","SE_SDO_ROWID":101133,"SE_ANNO_CAD_DATA":null}},{"type":"Feature","id":"MUSEUMOGD.101134","geometry":{"type":"Point","coordinates":[16.3714022,48.21162607]},"geometry_name":"SHAPE","properties":{"NAME":"Bezirksmuseum Innere Stadt","BEZIRK":1,"ADRESSE":"01., Wipplingerstraße 8","WEITERE_INF":"http://www.bezirksmuseum.at","SE_SDO_ROWID":101134,"SE_ANNO_CAD_DATA":null}},{"type":"Feature","id":"MUSEUMOGD.101135","geometry":{"type":"Point","coordinates":[16.37388474,48.20883773]},"geometry_name":"SHAPE","properties":{"NAME":"Dom Museum Wien","BEZIRK":1,"ADRESSE":"01., Stephansplatz 6","WEITERE_INF":"https://dommuseum.at","SE_SDO_ROWID":101135,"SE_ANNO_CAD_DATA":null}},{"type":"Feature","id":"MUSEUMOGD.101136","geometry":{"type":"Point","coordinates":[16.36243882,48.19604855]},"geometry_name":"SHAPE","properties":{"NAME":"Dritte Mann Museum","BEZIRK":4,"ADRESSE":"04., Pressgasse 25","WEITERE_INF":"https://www.3mpc.net","SE_SDO_ROWID":101136,"SE_ANNO_CAD_DATA":null}},{"type":"Feature","id":"MUSEUMOGD.101137","geometry":{"type":"Point","coordinates":[16.40939589,48.19634832]},"geometry_name":"SHAPE","properties":{"NAME":"Remise - Verkehrsmuseum der Wiener Linien","BEZIRK":3,"ADRESSE":"03., Ludwig-Koeßler-Platz","WEITERE_INF":"http://www.remise.wien","SE_SDO_ROWID":101137,"SE_ANNO_CAD_DATA":null}},{"type":"Feature","id":"MUSEUMOGD.101138","geometry":{"type":"Point","coordinates":[16.36630582,48.21171217]},"geometry_name":"SHAPE","properties":{"NAME":"Bank Austria Kunstforum Wien","BEZIRK":1,"ADRESSE":"01., Freyung 8","WEITERE_INF":"http://www.kunstforumwien.at/","SE_SDO_ROWID":101138,"SE_ANNO_CAD_DATA":null}},{"type":"Feature","id":"MUSEUMOGD.101139","geometry":{"type":"Point","coordinates":[16.37868641,48.22361715]},"geometry_name":"SHAPE","properties":{"NAME":"Porzellanmuseum im Augarten","BEZIRK":2,"ADRESSE":"02., Obere Augartenstraße 1","WEITERE_INF":"https://www.augarten.com","SE_SDO_ROWID":101139,"SE_ANNO_CAD_DATA":null}},{"type":"Feature","id":"MUSEUMOGD.101140","geometry":{"type":"Point","coordinates":[16.38731983,48.21594144]},"geometry_name":"SHAPE","properties":{"NAME":"Johann Strauss Wohnung","BEZIRK":2,"ADRESSE":"02., Praterstraße 54","WEITERE_INF":"https://www.wienmuseum.at/johann_strauss_wohnung","SE_SDO_ROWID":101140,"SE_ANNO_CAD_DATA":null}},{"type":"Feature","id":"MUSEUMOGD.101141","geometry":{"type":"Point","coordinates":[16.37322288,48.20385131]},"geometry_name":"SHAPE","properties":{"NAME":"Haus der Musik","BEZIRK":1,"ADRESSE":"01., Seilerstätte 30","WEITERE_INF":"https://www.hdm.at","SE_SDO_ROWID":101141,"SE_ANNO_CAD_DATA":null}},{"type":"Feature","id":"MUSEUMOGD.101142","geometry":{"type":"Point","coordinates":[16.36472053,48.20558071]},"geometry_name":"SHAPE","properties":{"NAME":"Sammlung alter Musikinstrumente","BEZIRK":1,"ADRESSE":"01., Hofburg, Neue Burg, Heldenplatz (Weltmuseum)","WEITERE_INF":"http://www.khm.at","SE_SDO_ROWID":101142,"SE_ANNO_CAD_DATA":null}},{"type":"Feature","id":"MUSEUMOGD.101143","geometry":{"type":"Point","coordinates":[16.36173561,48.20375385]},"geometry_name":"SHAPE","properties":{"NAME":"Kunsthistorisches Museum Wien","BEZIRK":1,"ADRESSE":"01., Maria-Theresien-Platz","WEITERE_INF":"http://www.khm.at/","SE_SDO_ROWID":101143,"SE_ANNO_CAD_DATA":null}},{"type":"Feature","id":"MUSEUMOGD.101144","geometry":{"type":"Point","coordinates":[16.35623103,48.25484218]},"geometry_name":"SHAPE","properties":{"NAME":"Beethoven Museum","BEZIRK":19,"ADRESSE":"19., Probusgasse 6","WEITERE_INF":"https://www.wienmuseum.at/beethoven_museum","SE_SDO_ROWID":101144,"SE_ANNO_CAD_DATA":null}},{"type":"Feature","id":"MUSEUMOGD.101145","geometry":{"type":"Point","coordinates":[16.36583151,48.20042533]},"geometry_name":"SHAPE","properties":{"NAME":"Secession","BEZIRK":1,"ADRESSE":"01., Friedrichstraße 12","WEITERE_INF":"http://www.secession.at/","SE_SDO_ROWID":101145,"SE_ANNO_CAD_DATA":null}},{"type":"Feature","id":"MUSEUMOGD.101146","geometry":{"type":"Point","coordinates":[16.37154068,48.20052802]},"geometry_name":"SHAPE","properties":{"NAME":"Albertina modern","BEZIRK":1,"ADRESSE":"01., Karlsplatz 5","WEITERE_INF":"https://www.albertina.at/albertina-modern/","SE_SDO_ROWID":101146,"SE_ANNO_CAD_DATA":null}},{"type":"Feature","id":"MUSEUMOGD.101147","geometry":{"type":"Point","coordinates":[16.36001901,48.20512674]},"geometry_name":"SHAPE","properties":{"NAME":"Naturhistorisches Museum","BEZIRK":1,"ADRESSE":"01., Maria-Theresien-Platz","WEITERE_INF":"http://www.nhm-wien.ac.at","SE_SDO_ROWID":101147,"SE_ANNO_CAD_DATA":null}},{"type":"Feature","id":"MUSEUMOGD.101148","geometry":{"type":"Point","coordinates":[16.39663558,48.21750343]},"geometry_name":"SHAPE","properties":{"NAME":"Madame Tussauds","BEZIRK":2,"ADRESSE":"02., Riesenradplatz 1","WEITERE_INF":"http://www.madametussauds.com/wien/","SE_SDO_ROWID":101148,"SE_ANNO_CAD_DATA":null}},{"type":"Feature","id":"MUSEUMOGD.101149","geometry":{"type":"Point","coordinates":[16.37495558,48.20814519]},"geometry_name":"SHAPE","properties":{"NAME":"Mozarthaus Vienna","BEZIRK":1,"ADRESSE":"01., Domgasse 5","WEITERE_INF":"http://www.mozarthausvienna.at","SE_SDO_ROWID":101149,"SE_ANNO_CAD_DATA":null}},{"type":"Feature","id":"MUSEUMOGD.101150","geometry":{"type":"Point","coordinates":[16.31814203,48.1909376]},"geometry_name":"SHAPE","properties":{"NAME":"Technisches Museum Wien","BEZIRK":14,"ADRESSE":"14., Mariahilfer Straße 212","WEITERE_INF":"https://www.technischesmuseum.at","SE_SDO_ROWID":101150,"SE_ANNO_CAD_DATA":null}},{"type":"Feature","id":"MUSEUMOGD.101151","geometry":{"type":"Point","coordinates":[16.36485881,48.20544774]},"geometry_name":"SHAPE","properties":{"NAME":"Haus der Geschichte Österreich","BEZIRK":1,"ADRESSE":"01., Hofburg, Heldenplatz","WEITERE_INF":"https://www.hdgoe.at/","SE_SDO_ROWID":101151,"SE_ANNO_CAD_DATA":null}},{"type":"Feature","id":"MUSEUMOGD.101152","geometry":{"type":"Point","coordinates":[16.36376514,48.20494289]},"geometry_name":"SHAPE","properties":{"NAME":"Weltmuseum 1873","BEZIRK":1,"ADRESSE":"01., Hofburg, Heldenplatz","WEITERE_INF":"https://www.weltmuseumwien.at/programm/150-jahre-wiener-weltausstellung/","SE_SDO_ROWID":101152,"SE_ANNO_CAD_DATA":null}},{"type":"Feature","id":"MUSEUMOGD.101153","geometry":{"type":"Point","coordinates":[16.35076851,48.21293287]},"geometry_name":"SHAPE","properties":{"NAME":"Volkskundemuseum 1873","BEZIRK":8,"ADRESSE":"08., Laudongasse 15-19","WEITERE_INF":"https://www.volkskundemuseum.at/vision_und_aufbruch","SE_SDO_ROWID":101153,"SE_ANNO_CAD_DATA":null}},{"type":"Feature","id":"MUSEUMOGD.101154","geometry":{"type":"Point","coordinates":[16.44127395,48.20992714]},"geometry_name":"SHAPE","properties":{"NAME":"Königreich der Eisenbahnen","BEZIRK":2,"ADRESSE":"02., Prater 119","WEITERE_INF":"https://www.koenigreich-der-eisenbahnen.at/","SE_SDO_ROWID":101154,"SE_ANNO_CAD_DATA":null}},{"type":"Feature","id":"MUSEUMOGD.101155","geometry":{"type":"Point","coordinates":[16.365911,48.19071698]},"geometry_name":"SHAPE","properties":{"NAME":"Rauchfangkehrermuseum","BEZIRK":4,"ADRESSE":"04., Klagbaumgasse 4","WEITERE_INF":"https://www.rauchfangkehrermuseum.at/","SE_SDO_ROWID":101155,"SE_ANNO_CAD_DATA":null}},{"type":"Feature","id":"MUSEUMOGD.101156","geometry":{"type":"Point","coordinates":[16.43084295,48.24369988]},"geometry_name":"SHAPE","properties":{"NAME":"Österreichisches Gartenbaumuseum","BEZIRK":22,"ADRESSE":"22., Siebeckstraße 14","WEITERE_INF":"http://www.wien.gv.at/umwelt/parks/gartenbaumuseum/index.html","SE_SDO_ROWID":101156,"SE_ANNO_CAD_DATA":null}},{"type":"Feature","id":"MUSEUMOGD.101157","geometry":{"type":"Point","coordinates":[16.36556349,48.207932]},"geometry_name":"SHAPE","properties":{"NAME":"Sisi Museum","BEZIRK":1,"ADRESSE":"01., Michaelerplatz","WEITERE_INF":"https://www.sisimuseum-hofburg.at","SE_SDO_ROWID":101157,"SE_ANNO_CAD_DATA":null}},{"type":"Feature","id":"MUSEUMOGD.101158","geometry":{"type":"Point","coordinates":[16.3507649,48.21344758]},"geometry_name":"SHAPE","properties":{"NAME":"Volkskundemuseum Wien","BEZIRK":8,"ADRESSE":"08., Laudongasse 15-19","WEITERE_INF":"https://www.volkskundemuseum.at","SE_SDO_ROWID":101158,"SE_ANNO_CAD_DATA":null}},{"type":"Feature","id":"MUSEUMOGD.101159","geometry":{"type":"Point","coordinates":[16.36837022,48.20458426]},"geometry_name":"SHAPE","properties":{"NAME":"Albertina","BEZIRK":1,"ADRESSE":"01., Albertinaplatz 1","WEITERE_INF":"http://www.albertina.at/","SE_SDO_ROWID":101159,"SE_ANNO_CAD_DATA":null}},{"type":"Feature","id":"MUSEUMOGD.101160","geometry":{"type":"Point","coordinates":[16.38130704,48.20761738]},"geometry_name":"SHAPE","properties":{"NAME":"MAK - Museum für angewandte Kunst","BEZIRK":1,"ADRESSE":"01., Stubenring 5","WEITERE_INF":"http://www.mak.at/","SE_SDO_ROWID":101160,"SE_ANNO_CAD_DATA":null}},{"type":"Feature","id":"MUSEUMOGD.101161","geometry":{"type":"Point","coordinates":[16.33815452,48.18252953]},"geometry_name":"SHAPE","properties":{"NAME":"Bezirksmuseum Meidling","BEZIRK":12,"ADRESSE":"12., Längenfeldgasse 13-15","WEITERE_INF":"http://www.bezirksmuseum.at","SE_SDO_ROWID":101161,"SE_ANNO_CAD_DATA":null}},{"type":"Feature","id":"MUSEUMOGD.101162","geometry":{"type":"Point","coordinates":[16.33966022,48.18275164]},"geometry_name":"SHAPE","properties":{"NAME":"Brennpunkt° - Museum der Heizkultur Wien","BEZIRK":12,"ADRESSE":"12., Malfattigasse 4","WEITERE_INF":"http://www.wien.gv.at/kultur/museen/brennpunkt","SE_SDO_ROWID":101162,"SE_ANNO_CAD_DATA":null}},{"type":"Feature","id":"MUSEUMOGD.101163","geometry":{"type":"Point","coordinates":[16.37833175,48.19767233]},"geometry_name":"SHAPE","properties":{"NAME":"Belvedere - Spitzhof","BEZIRK":3,"ADRESSE":"03., Rennweg 4","WEITERE_INF":"http://www.belvedere.at","SE_SDO_ROWID":101163,"SE_ANNO_CAD_DATA":null}},{"type":"Feature","id":"MUSEUMOGD.101164","geometry":{"type":"Point","coordinates":[16.35342969,48.21853086]},"geometry_name":"SHAPE","properties":{"NAME":"Narrenturm","BEZIRK":9,"ADRESSE":"09., Spitalgasse 2, Uni-Campus, 6. Hof","WEITERE_INF":"http://www.nhm-wien.ac.at/narrenturm","SE_SDO_ROWID":101164,"SE_ANNO_CAD_DATA":null}},{"type":"Feature","id":"MUSEUMOGD.101165","geometry":{"type":"Point","coordinates":[16.34262916,48.22665172]},"geometry_name":"SHAPE","properties":{"NAME":"Bezirksmuseum Währing","BEZIRK":18,"ADRESSE":"18., Währinger Straße 124","WEITERE_INF":"http://www.bezirksmuseum.at","SE_SDO_ROWID":101165,"SE_ANNO_CAD_DATA":null}},{"type":"Feature","id":"MUSEUMOGD.101166","geometry":{"type":"Point","coordinates":[16.36590101,48.20781893]},"geometry_name":"SHAPE","properties":{"NAME":"Silberkammer","BEZIRK":1,"ADRESSE":"01., Hofburg","WEITERE_INF":"http://www.sisimuseum-hofburg.at","SE_SDO_ROWID":101166,"SE_ANNO_CAD_DATA":null}},{"type":"Feature","id":"MUSEUMOGD.101167","geometry":{"type":"Point","coordinates":[16.359214,48.20267261]},"geometry_name":"SHAPE","properties":{"NAME":"Leopold Museum","BEZIRK":7,"ADRESSE":"07., Museumsplatz 1","WEITERE_INF":"http://www.leopoldmuseum.org","SE_SDO_ROWID":101167,"SE_ANNO_CAD_DATA":null}},{"type":"Feature","id":"MUSEUMOGD.101168","geometry":{"type":"Point","coordinates":[16.3552585,48.22748261]},"geometry_name":"SHAPE","properties":{"NAME":"Schubert Geburtshaus","BEZIRK":9,"ADRESSE":"09., Nußdorfer Straße 54","WEITERE_INF":"https://www.wienmuseum.at/schubert_geburtshaus","SE_SDO_ROWID":101168,"SE_ANNO_CAD_DATA":null}},{"type":"Feature","id":"MUSEUMOGD.101169","geometry":{"type":"Point","coordinates":[16.33397341,48.20205989]},"geometry_name":"SHAPE","properties":{"NAME":"Wiener Stadthalle - Halle F","BEZIRK":15,"ADRESSE":"15., Roland-Rainer-Platz 1","WEITERE_INF":"http://www.stadthalle.com","SE_SDO_ROWID":101169,"SE_ANNO_CAD_DATA":null}},{"type":"Feature","id":"MUSEUMOGD.101170","geometry":{"type":"Point","coordinates":[16.37753145,48.19891968]},"geometry_name":"SHAPE","properties":{"NAME":"Arnold Schönberg Center","BEZIRK":3,"ADRESSE":"03., Zaunergasse 1-3","WEITERE_INF":"http://www.schoenberg.at","SE_SDO_ROWID":101170,"SE_ANNO_CAD_DATA":null}},{"type":"Feature","id":"MUSEUMOGD.101171","geometry":{"type":"Point","coordinates":[16.30723186,48.24379856]},"geometry_name":"SHAPE","properties":{"NAME":"Geymüllerschlössel","BEZIRK":18,"ADRESSE":"18., Pötzleinsdorfer Straße 102","WEITERE_INF":"http://www.mak.at","SE_SDO_ROWID":101171,"SE_ANNO_CAD_DATA":null}},{"type":"Feature","id":"MUSEUMOGD.101172","geometry":{"type":"Point","coordinates":[16.26344791,48.19773821]},"geometry_name":"SHAPE","properties":{"NAME":"Rapideum","BEZIRK":14,"ADRESSE":"14., Allianz Stadion; Gerhard-Hanappi-Platz 1","WEITERE_INF":"http://www.skrapid.at/rapideum","SE_SDO_ROWID":101172,"SE_ANNO_CAD_DATA":null}},{"type":"Feature","id":"MUSEUMOGD.101173","geometry":{"type":"Point","coordinates":[16.36930671,48.21081348]},"geometry_name":"SHAPE","properties":{"NAME":"Uhrenmuseum","BEZIRK":1,"ADRESSE":"01., Schulhof 2","WEITERE_INF":"https://www.wienmuseum.at/uhrenmuseum","SE_SDO_ROWID":101173,"SE_ANNO_CAD_DATA":null}},{"type":"Feature","id":"MUSEUMOGD.101174","geometry":{"type":"Point","coordinates":[16.3451541,48.19426497]},"geometry_name":"SHAPE","properties":{"NAME":"Haydnhaus","BEZIRK":6,"ADRESSE":"06., Haydngasse 19","WEITERE_INF":"https://www.wienmuseum.at/haydnhaus","SE_SDO_ROWID":101174,"SE_ANNO_CAD_DATA":null}},{"type":"Feature","id":"MUSEUMOGD.101175","geometry":{"type":"Point","coordinates":[16.36142142,48.19467286]},"geometry_name":"SHAPE","properties":{"NAME":"Schubert Sterbewohnung","BEZIRK":4,"ADRESSE":"04., Kettenbrückengasse 6","WEITERE_INF":"https://www.wienmuseum.at/schubert_sterbewohnung","SE_SDO_ROWID":101175,"SE_ANNO_CAD_DATA":null}},{"type":"Feature","id":"MUSEUMOGD.101176","geometry":{"type":"Point","coordinates":[16.31155998,48.18498349]},"geometry_name":"SHAPE","properties":{"NAME":"Schloss Schönbrunn Virtual Reality","BEZIRK":13,"ADRESSE":"13., Schönbrunner Schloßstraße 47","WEITERE_INF":"http://www.schoenbrunnvr.com/","SE_SDO_ROWID":101176,"SE_ANNO_CAD_DATA":null}},{"type":"Feature","id":"MUSEUMOGD.101177","geometry":{"type":"Point","coordinates":[16.3693086,48.20715849]},"geometry_name":"SHAPE","properties":{"NAME":"Jüdisches Museum Wien","BEZIRK":1,"ADRESSE":"01., Dorotheergasse 11","WEITERE_INF":"https://www.jmw.at","SE_SDO_ROWID":101177,"SE_ANNO_CAD_DATA":null}},{"type":"Feature","id":"MUSEUMOGD.101178","geometry":{"type":"Point","coordinates":[16.3658112,48.19075367]},"geometry_name":"SHAPE","properties":{"NAME":"Bezirksmuseum Wieden","BEZIRK":4,"ADRESSE":"04., Klagbaumgasse 4","WEITERE_INF":"https://www.bezirksmuseum.at","SE_SDO_ROWID":101178,"SE_ANNO_CAD_DATA":null}},{"type":"Feature","id":"MUSEUMOGD.101179","geometry":{"type":"Point","coordinates":[16.35109407,48.18907839]},"geometry_name":"SHAPE","properties":{"NAME":"Chocolate Museum Vienna","BEZIRK":5,"ADRESSE":"05., Schönbrunnerstraße 99","WEITERE_INF":"http://www.chocolate-museum.wien","SE_SDO_ROWID":101179,"SE_ANNO_CAD_DATA":null}},{"type":"Feature","id":"MUSEUMOGD.101180","geometry":{"type":"Point","coordinates":[16.35656857,48.20886579]},"geometry_name":"SHAPE","properties":{"NAME":"Musiksammlung Wienbibliothek","BEZIRK":1,"ADRESSE":"01., Bartensteingasse 9","WEITERE_INF":"http://www.wienbibliothek.at","SE_SDO_ROWID":101180,"SE_ANNO_CAD_DATA":null}},{"type":"Feature","id":"MUSEUMOGD.101181","geometry":{"type":"Point","coordinates":[16.31152932,48.19079996]},"geometry_name":"SHAPE","properties":{"NAME":"Enkelkinder- und Automatenmuseum","BEZIRK":14,"ADRESSE":"14., Beckmanngasse 7","WEITERE_INF":null,"SE_SDO_ROWID":101181,"SE_ANNO_CAD_DATA":null}},{"type":"Feature","id":"MUSEUMOGD.101182","geometry":{"type":"Point","coordinates":[16.37923484,48.19682514]},"geometry_name":"SHAPE","properties":{"NAME":"Belvedere - Prunkstall","BEZIRK":3,"ADRESSE":"03., Rennweg 6","WEITERE_INF":"http://www.belvedere.at","SE_SDO_ROWID":101182,"SE_ANNO_CAD_DATA":null}},{"type":"Feature","id":"MUSEUMOGD.101183","geometry":{"type":"Point","coordinates":[16.36494252,48.25196326]},"geometry_name":"SHAPE","properties":{"NAME":"Das Rote Wien im Waschsalon Karl-Marx-Hof","BEZIRK":19,"ADRESSE":"19., Waschsalon Nr. 2, Halteraugasse 7","WEITERE_INF":"http://dasrotewien-waschsalon.at","SE_SDO_ROWID":101183,"SE_ANNO_CAD_DATA":null}},{"type":"Feature","id":"MUSEUMOGD.101184","geometry":{"type":"Point","coordinates":[16.48295266,48.21779337]},"geometry_name":"SHAPE","properties":{"NAME":"Museum Aspern Essling 1809","BEZIRK":22,"ADRESSE":"22., Asperner Heldenplatz 9","WEITERE_INF":"http://www.aspern-essling-1809.eu","SE_SDO_ROWID":101184,"SE_ANNO_CAD_DATA":null}},{"type":"Feature","id":"MUSEUMOGD.101185","geometry":{"type":"Point","coordinates":[16.34211333,48.20197774]},"geometry_name":"SHAPE","properties":{"NAME":"WestLicht - Schauplatz für Fotografie","BEZIRK":7,"ADRESSE":"07., Westbahnstraße 40","WEITERE_INF":"http://www.westlicht.com/","SE_SDO_ROWID":101185,"SE_ANNO_CAD_DATA":null}},{"type":"Feature","id":"MUSEUMOGD.101186","geometry":{"type":"Point","coordinates":[16.35942929,48.20222376]},"geometry_name":"SHAPE","properties":{"NAME":"ZOOM Kindermuseum","BEZIRK":7,"ADRESSE":"07., MuseumsQuartier, Museumsplatz 1","WEITERE_INF":"http://www.kindermuseum.at/","SE_SDO_ROWID":101186,"SE_ANNO_CAD_DATA":null}},{"type":"Feature","id":"MUSEUMOGD.101187","geometry":{"type":"Point","coordinates":[16.37263868,48.2047847]},"geometry_name":"SHAPE","properties":{"NAME":"Grillparzerhaus/Österreichisches Staatsarchiv","BEZIRK":1,"ADRESSE":"01., Johannesgasse 6","WEITERE_INF":null,"SE_SDO_ROWID":101187,"SE_ANNO_CAD_DATA":null}},{"type":"Feature","id":"MUSEUMOGD.101188","geometry":{"type":"Point","coordinates":[16.35211202,48.21051844]},"geometry_name":"SHAPE","properties":{"NAME":"Bezirksmuseum Josefstadt","BEZIRK":8,"ADRESSE":"08., Schmiedgasse 18","WEITERE_INF":"http://www.bezirksmuseum.at","SE_SDO_ROWID":101188,"SE_ANNO_CAD_DATA":null}},{"type":"Feature","id":"MUSEUMOGD.101189","geometry":{"type":"Point","coordinates":[16.36472053,48.20558071]},"geometry_name":"SHAPE","properties":{"NAME":"Hofjagd- und Rüstkammer","BEZIRK":1,"ADRESSE":"01., Hofburg, Neue Burg, Heldenplatz","WEITERE_INF":"http://www.khm.at/","SE_SDO_ROWID":101189,"SE_ANNO_CAD_DATA":null}},{"type":"Feature","id":"MUSEUMOGD.101190","geometry":{"type":"Point","coordinates":[16.30522959,48.18979292]},"geometry_name":"SHAPE","properties":{"NAME":"Bezirksmuseum Penzing","BEZIRK":14,"ADRESSE":"14., Penzinger Straße 59","WEITERE_INF":"http://www.bezirksmuseum.at","SE_SDO_ROWID":101190,"SE_ANNO_CAD_DATA":null}},{"type":"Feature","id":"MUSEUMOGD.101191","geometry":{"type":"Point","coordinates":[16.25604276,48.20924985]},"geometry_name":"SHAPE","properties":{"NAME":"Ernst Fuchs-Museum","BEZIRK":14,"ADRESSE":"14., Hüttelbergstraße 26","WEITERE_INF":"http://www.ernstfuchsmuseum.at/","SE_SDO_ROWID":101191,"SE_ANNO_CAD_DATA":null}},{"type":"Feature","id":"MUSEUMOGD.101192","geometry":{"type":"Point","coordinates":[16.36568162,48.20939569]},"geometry_name":"SHAPE","properties":{"NAME":"Esperantomuseum","BEZIRK":1,"ADRESSE":"01., Palais Mollard, Herrengasse 9","WEITERE_INF":"https://www.onb.ac.at/museen/esperantomuseum/","SE_SDO_ROWID":101192,"SE_ANNO_CAD_DATA":null}},{"type":"Feature","id":"MUSEUMOGD.101193","geometry":{"type":"Point","coordinates":[16.35292361,48.19765485]},"geometry_name":"SHAPE","properties":{"NAME":"Retro Gaming Museum","BEZIRK":6,"ADRESSE":"06., Fritz-Grünbaum-Platz 1","WEITERE_INF":"https://www.gamingmuseum.at","SE_SDO_ROWID":101193,"SE_ANNO_CAD_DATA":null}},{"type":"Feature","id":"MUSEUMOGD.101194","geometry":{"type":"Point","coordinates":[16.35793692,48.20449041]},"geometry_name":"SHAPE","properties":{"NAME":"Az W – Architekturzentrum Wien","BEZIRK":7,"ADRESSE":"07., MuseumsQuartier, Museumsplatz 1","WEITERE_INF":"http://www.azw.at/","SE_SDO_ROWID":101194,"SE_ANNO_CAD_DATA":null}},{"type":"Feature","id":"MUSEUMOGD.101195","geometry":{"type":"Point","coordinates":[16.39409486,48.26371431]},"geometry_name":"SHAPE","properties":{"NAME":"Bezirksmuseum Floridsdorf","BEZIRK":21,"ADRESSE":"21., Prager Straße 33","WEITERE_INF":"http://www.bezirksmuseum.at","SE_SDO_ROWID":101195,"SE_ANNO_CAD_DATA":null}},{"type":"Feature","id":"MUSEUMOGD.101196","geometry":{"type":"Point","coordinates":[16.40548974,48.21938871]},"geometry_name":"SHAPE","properties":{"NAME":"Circus- & Clownmuseum","BEZIRK":2,"ADRESSE":"02., Ilgplatz 7","WEITERE_INF":"http://www.circus-clownmuseum.at/","SE_SDO_ROWID":101196,"SE_ANNO_CAD_DATA":null}},{"type":"Feature","id":"MUSEUMOGD.101197","geometry":{"type":"Point","coordinates":[16.36472053,48.20558071]},"geometry_name":"SHAPE","properties":{"NAME":"Ephesos-Museum","BEZIRK":1,"ADRESSE":"01., Neue Burg, Heldenplatz","WEITERE_INF":"http://www.khm.at/","SE_SDO_ROWID":101197,"SE_ANNO_CAD_DATA":null}},{"type":"Feature","id":"MUSEUMOGD.101198","geometry":{"type":"Point","coordinates":[16.35328322,48.21850893]},"geometry_name":"SHAPE","properties":{"NAME":"Pathologisch-anatomische Sammlung im Narrenturm - NHM","BEZIRK":9,"ADRESSE":"09., Spitalgasse 2, Narrenturm","WEITERE_INF":"http://www.nhm-wien.ac.at/narrenturm","SE_SDO_ROWID":101198,"SE_ANNO_CAD_DATA":null}},{"type":"Feature","id":"MUSEUMOGD.101199","geometry":{"type":"Point","coordinates":[16.33112451,48.22426604]},"geometry_name":"SHAPE","properties":{"NAME":"Original Wiener Schneekugelmanufaktur & Schneekugelmuseum","BEZIRK":17,"ADRESSE":"17., Schumanngasse 87","WEITERE_INF":"https://schneekugel.at","SE_SDO_ROWID":101199,"SE_ANNO_CAD_DATA":null}},{"type":"Feature","id":"MUSEUMOGD.101200","geometry":{"type":"Point","coordinates":[16.36514103,48.20557199]},"geometry_name":"SHAPE","properties":{"NAME":"Papyrusmuseum","BEZIRK":1,"ADRESSE":"01., Neue Burg, Heldenplatz","WEITERE_INF":"http://www.onb.ac.at","SE_SDO_ROWID":101200,"SE_ANNO_CAD_DATA":null}},{"type":"Feature","id":"MUSEUMOGD.101201","geometry":{"type":"Point","coordinates":[16.36835429,48.20484625]},"geometry_name":"SHAPE","properties":{"NAME":"Österreichisches Filmmuseum","BEZIRK":1,"ADRESSE":"01., Augustinerstraße 1","WEITERE_INF":"http://www.filmmuseum.at/","SE_SDO_ROWID":101201,"SE_ANNO_CAD_DATA":null}},{"type":"Feature","id":"MUSEUMOGD.101202","geometry":{"type":"Point","coordinates":[16.35829096,48.2030889]},"geometry_name":"SHAPE","properties":{"NAME":"Kunsthalle Wien MuseumsQuartier","BEZIRK":7,"ADRESSE":"07., Museumsplatz 1","WEITERE_INF":"http://www.kunsthallewien.at/","SE_SDO_ROWID":101202,"SE_ANNO_CAD_DATA":null}},{"type":"Feature","id":"MUSEUMOGD.101203","geometry":{"type":"Point","coordinates":[16.34163575,48.21213899]},"geometry_name":"SHAPE","properties":{"NAME":"Wiener Schuhmuseum","BEZIRK":8,"ADRESSE":"08., Florianigasse 66","WEITERE_INF":"http://www.schuhmuseum.at","SE_SDO_ROWID":101203,"SE_ANNO_CAD_DATA":null}},{"type":"Feature","id":"MUSEUMOGD.101204","geometry":{"type":"Point","coordinates":[16.50806226,48.2293635]},"geometry_name":"SHAPE","properties":{"NAME":"Dialog im Dunkeln","BEZIRK":22,"ADRESSE":"22., Barbara-Prammer-Allee 13/1/4","WEITERE_INF":"http://www.imdunkeln.at","SE_SDO_ROWID":101204,"SE_ANNO_CAD_DATA":null}},{"type":"Feature","id":"MUSEUMOGD.101205","geometry":{"type":"Point","coordinates":[16.38387994,48.21154006]},"geometry_name":"SHAPE","properties":{"NAME":"Für das Kind","BEZIRK":3,"ADRESSE":"03., Uraniastraße 1 (Urania)","WEITERE_INF":"http://www.millisegal.at","SE_SDO_ROWID":101205,"SE_ANNO_CAD_DATA":null}},{"type":"Feature","id":"MUSEUMOGD.101206","geometry":{"type":"Point","coordinates":[16.37942228,48.20979464]},"geometry_name":"SHAPE","properties":{"NAME":"Lebendiges Haus","BEZIRK":1,"ADRESSE":"01., Dominikanerbastei 11","WEITERE_INF":"https://www.sha-art.com/","SE_SDO_ROWID":101206,"SE_ANNO_CAD_DATA":null}},{"type":"Feature","id":"MUSEUMOGD.101207","geometry":{"type":"Point","coordinates":[16.35285316,48.19366887]},"geometry_name":"SHAPE","properties":{"NAME":"Bezirksmuseum Mariahilf","BEZIRK":6,"ADRESSE":"06., Mollardgasse 8","WEITERE_INF":"http://www.bezirksmuseum.at","SE_SDO_ROWID":101207,"SE_ANNO_CAD_DATA":null}},{"type":"Feature","id":"MUSEUMOGD.101208","geometry":{"type":"Point","coordinates":[16.36969739,48.20138592]},"geometry_name":"SHAPE","properties":{"NAME":"3D PicArt Museum","BEZIRK":1,"ADRESSE":"01., Bösendorferstraße 2-4","WEITERE_INF":"https://www.3dpicart-museum.at/","SE_SDO_ROWID":101208,"SE_ANNO_CAD_DATA":null}},{"type":"Feature","id":"MUSEUMOGD.101209","geometry":{"type":"Point","coordinates":[16.30507386,48.18974497]},"geometry_name":"SHAPE","properties":{"NAME":"Wiener Ziegelmuseum","BEZIRK":14,"ADRESSE":"14., Penzinger Straße 59","WEITERE_INF":"https://www.ziegel.at/information/geschichte/wiener-ziegelmuseum","SE_SDO_ROWID":101209,"SE_ANNO_CAD_DATA":null}},{"type":"Feature","id":"MUSEUMOGD.101210","geometry":{"type":"Point","coordinates":[16.34992148,48.19683316]},"geometry_name":"SHAPE","properties":{"NAME":"Condomi-Museum","BEZIRK":6,"ADRESSE":"06., Esterhazygasse 26","WEITERE_INF":"https://www.liebens-wert.at/de/museum/kondommuseum/","SE_SDO_ROWID":101210,"SE_ANNO_CAD_DATA":null}},{"type":"Feature","id":"MUSEUMOGD.101211","geometry":{"type":"Point","coordinates":[16.34523601,48.19962825]},"geometry_name":"SHAPE","properties":{"NAME":"Museum der Gold- und Silberschmiede","BEZIRK":7,"ADRESSE":"07., Zieglergasse 22","WEITERE_INF":"http://www.beyars.com/de_museum-beschreibung.html","SE_SDO_ROWID":101211,"SE_ANNO_CAD_DATA":null}},{"type":"Feature","id":"MUSEUMOGD.101212","geometry":{"type":"Point","coordinates":[16.35670267,48.18381662]},"geometry_name":"SHAPE","properties":{"NAME":"Kaffeemuseum Wien","BEZIRK":5,"ADRESSE":"05., Vogelsanggasse 36","WEITERE_INF":"http://www.kaffeemuseum.at","SE_SDO_ROWID":101212,"SE_ANNO_CAD_DATA":null}},{"type":"Feature","id":"MUSEUMOGD.101213","geometry":{"type":"Point","coordinates":[16.35680323,48.18388891]},"geometry_name":"SHAPE","properties":{"NAME":"Österreichisches Gesellschafts- und Wirtschaftsmuseum","BEZIRK":5,"ADRESSE":"05., Vogelsanggasse 36","WEITERE_INF":"http://www.wirtschaftsmuseum.at","SE_SDO_ROWID":101213,"SE_ANNO_CAD_DATA":null}},{"type":"Feature","id":"MUSEUMOGD.101214","geometry":{"type":"Point","coordinates":[16.35690317,48.21199188]},"geometry_name":"SHAPE","properties":{"NAME":"musa","BEZIRK":1,"ADRESSE":"01., Felderstraße 6-8","WEITERE_INF":"https://www.wienmuseum.at/musa","SE_SDO_ROWID":101214,"SE_ANNO_CAD_DATA":null}},{"type":"Feature","id":"MUSEUMOGD.101215","geometry":{"type":"Point","coordinates":[16.37837007,48.21820244]},"geometry_name":"SHAPE","properties":{"NAME":"Kriminalmuseum","BEZIRK":2,"ADRESSE":"02., Große Sperlgasse 24","WEITERE_INF":"https://www.kriminalmuseum.at","SE_SDO_ROWID":101215,"SE_ANNO_CAD_DATA":null}},{"type":"Feature","id":"MUSEUMOGD.101216","geometry":{"type":"Point","coordinates":[16.36449413,48.21212737]},"geometry_name":"SHAPE","properties":{"NAME":"Museum im Schottenstift","BEZIRK":1,"ADRESSE":"01., Freyung 6","WEITERE_INF":"http://www.schotten.wien/","SE_SDO_ROWID":101216,"SE_ANNO_CAD_DATA":null}},{"type":"Feature","id":"MUSEUMOGD.101217","geometry":{"type":"Point","coordinates":[16.38149808,48.20741419]},"geometry_name":"SHAPE","properties":{"NAME":"MAK 1873","BEZIRK":1,"ADRESSE":"01., Stubenring 5","WEITERE_INF":"http://www.mak.at/","SE_SDO_ROWID":101217,"SE_ANNO_CAD_DATA":null}},{"type":"Feature","id":"MUSEUMOGD.101218","geometry":{"type":"Point","coordinates":[16.37079159,48.2051903]},"geometry_name":"SHAPE","properties":{"NAME":"Glasmuseum Lobmeyr","BEZIRK":1,"ADRESSE":"01., Kärntner Straße 26","WEITERE_INF":"http://www.lobmeyr.at/","SE_SDO_ROWID":101218,"SE_ANNO_CAD_DATA":null}},{"type":"Feature","id":"MUSEUMOGD.101219","geometry":{"type":"Point","coordinates":[16.3682518,48.20463051]},"geometry_name":"SHAPE","properties":{"NAME":"Liebesnest Albertina","BEZIRK":1,"ADRESSE":"01., Albertinaplatz 1","WEITERE_INF":"https://www.albertina.at/","SE_SDO_ROWID":101219,"SE_ANNO_CAD_DATA":null}},{"type":"Feature","id":"MUSEUMOGD.101220","geometry":{"type":"Point","coordinates":[16.35538492,48.24029585]},"geometry_name":"SHAPE","properties":{"NAME":"House of Strauss","BEZIRK":19,"ADRESSE":"19., Döblinger Hauptstraße 76","WEITERE_INF":"https://www.houseofstrauss.at","SE_SDO_ROWID":101220,"SE_ANNO_CAD_DATA":null}},{"type":"Feature","id":"MUSEUMOGD.101221","geometry":{"type":"Point","coordinates":[16.3879232,48.20131591]},"geometry_name":"SHAPE","properties":{"NAME":"Bezirksmuseum Landstrasse","BEZIRK":3,"ADRESSE":"03., Sechskrügelgasse 11","WEITERE_INF":"http://www.bezirksmuseum.at","SE_SDO_ROWID":101221,"SE_ANNO_CAD_DATA":null}},{"type":"Feature","id":"MUSEUMOGD.101222","geometry":{"type":"Point","coordinates":[16.36727742,48.21135258]},"geometry_name":"SHAPE","properties":{"NAME":"Feuerwehrmuseum","BEZIRK":1,"ADRESSE":"01., Am Hof 7","WEITERE_INF":null,"SE_SDO_ROWID":101222,"SE_ANNO_CAD_DATA":null}},{"type":"Feature","id":"MUSEUMOGD.101223","geometry":{"type":"Point","coordinates":[16.41366984,48.17557092]},"geometry_name":"SHAPE","properties":{"NAME":"Bezirksmuseum Simmering","BEZIRK":11,"ADRESSE":"11., Enkplatz 2","WEITERE_INF":"http://www.bezirksmuseum.at","SE_SDO_ROWID":101223,"SE_ANNO_CAD_DATA":null}},{"type":"Feature","id":"MUSEUMOGD.101224","geometry":{"type":"Point","coordinates":[16.35450909,48.21614976]},"geometry_name":"SHAPE","properties":{"NAME":"Geldmuseum der Oesterreichischen Nationalbank","BEZIRK":9,"ADRESSE":"09., Otto-Wagner-Platz 3","WEITERE_INF":"http://www.geldmuseum.at","SE_SDO_ROWID":101224,"SE_ANNO_CAD_DATA":null}},{"type":"Feature","id":"MUSEUMOGD.101225","geometry":{"type":"Point","coordinates":[16.36142862,48.20364256]},"geometry_name":"SHAPE","properties":{"NAME":"Kunsthistorisches Museum 1873","BEZIRK":1,"ADRESSE":"01., Maria-Theresien-Platz","WEITERE_INF":"https://www.khm.at/besuchen/sammlungen/aegyptisch-orientalische-sammlung/","SE_SDO_ROWID":101225,"SE_ANNO_CAD_DATA":null}},{"type":"Feature","id":"MUSEUMOGD.101226","geometry":{"type":"Point","coordinates":[16.29254389,48.14509614]},"geometry_name":"SHAPE","properties":{"NAME":"Bezirksmuseum Liesing","BEZIRK":23,"ADRESSE":"23., Canavesegasse 24","WEITERE_INF":"http://www.bezirksmuseum.at","SE_SDO_ROWID":101226,"SE_ANNO_CAD_DATA":null}},{"type":"Feature","id":"MUSEUMOGD.101227","geometry":{"type":"Point","coordinates":[16.39344069,48.21100026]},"geometry_name":"SHAPE","properties":{"NAME":"Kunst Haus Wien","BEZIRK":3,"ADRESSE":"03., Untere Weißgerberstraße 13","WEITERE_INF":"https://www.kunsthauswien.com","SE_SDO_ROWID":101227,"SE_ANNO_CAD_DATA":null}},{"type":"Feature","id":"MUSEUMOGD.101228","geometry":{"type":"Point","coordinates":[16.36916961,48.21192437]},"geometry_name":"SHAPE","properties":{"NAME":"Museum Judenplatz","BEZIRK":1,"ADRESSE":"01., Judenplatz 8","WEITERE_INF":"https://www.jmw.at","SE_SDO_ROWID":101228,"SE_ANNO_CAD_DATA":null}},{"type":"Feature","id":"MUSEUMOGD.101229","geometry":{"type":"Point","coordinates":[16.33486305,48.19500297]},"geometry_name":"SHAPE","properties":{"NAME":"Bezirksmuseum Rudolfsheim-Fünfhaus","BEZIRK":15,"ADRESSE":"15., Rosinagasse 4 (Ecke Gasgasse)","WEITERE_INF":"http://www.bezirksmuseum.at","SE_SDO_ROWID":101229,"SE_ANNO_CAD_DATA":null}},{"type":"Feature","id":"MUSEUMOGD.101230","geometry":{"type":"Point","coordinates":[16.37267959,48.21068038]},"geometry_name":"SHAPE","properties":{"NAME":"Römermuseum","BEZIRK":1,"ADRESSE":"01., Hoher Markt 3","WEITERE_INF":"https://www.wienmuseum.at/roemermuseum","SE_SDO_ROWID":101230,"SE_ANNO_CAD_DATA":null}},{"type":"Feature","id":"MUSEUMOGD.101231","geometry":{"type":"Point","coordinates":[16.36301255,48.21859054]},"geometry_name":"SHAPE","properties":{"NAME":"Sigmund Freud Museum","BEZIRK":9,"ADRESSE":"09., Berggasse 19","WEITERE_INF":"https://www.freud-museum.at","SE_SDO_ROWID":101231,"SE_ANNO_CAD_DATA":null}},{"type":"Feature","id":"MUSEUMOGD.101232","geometry":{"type":"Point","coordinates":[16.35684678,48.21920855]},"geometry_name":"SHAPE","properties":{"NAME":"Josephinum","BEZIRK":9,"ADRESSE":"09., Währinger Straße 25","WEITERE_INF":"http://www.josephinum.ac.at","SE_SDO_ROWID":101232,"SE_ANNO_CAD_DATA":null}},{"type":"Feature","id":"MUSEUMOGD.101233","geometry":{"type":"Point","coordinates":[16.37339578,48.20747209]},"geometry_name":"SHAPE","properties":{"NAME":"Schatzkammer des Deutschen Ordens","BEZIRK":1,"ADRESSE":"01., Singerstraße 7/1","WEITERE_INF":"https://www.deutscher-orden.at/site/ordenshausinwien/schatzkammer","SE_SDO_ROWID":101233,"SE_ANNO_CAD_DATA":null}},{"type":"Feature","id":"MUSEUMOGD.101234","geometry":{"type":"Point","coordinates":[16.33906113,48.19489427]},"geometry_name":"SHAPE","properties":{"NAME":"Museum für Verhütung und Schwangerschaftsabbruch","BEZIRK":15,"ADRESSE":"15., Mariahilfergürtel 37","WEITERE_INF":"http://de.muvs.org","SE_SDO_ROWID":101234,"SE_ANNO_CAD_DATA":null}},{"type":"Feature","id":"MUSEUMOGD.101235","geometry":{"type":"Point","coordinates":[16.3014946,48.18539534]},"geometry_name":"SHAPE","properties":{"NAME":"Bezirksmuseum Hietzing","BEZIRK":13,"ADRESSE":"13., Am Platz 2","WEITERE_INF":"http://www.bezirksmuseum.at","SE_SDO_ROWID":101235,"SE_ANNO_CAD_DATA":null}},{"type":"Feature","id":"MUSEUMOGD.101236","geometry":{"type":"Point","coordinates":[16.30857024,48.16719192]},"geometry_name":"SHAPE","properties":{"NAME":"Modesammlung Hetzendorf","BEZIRK":12,"ADRESSE":"12., Hetzendorferstraße 79","WEITERE_INF":"http://www.museum.vienna.at","SE_SDO_ROWID":101236,"SE_ANNO_CAD_DATA":null}},{"type":"Feature","id":"MUSEUMOGD.101237","geometry":{"type":"Point","coordinates":[16.44738822,48.2489334]},"geometry_name":"SHAPE","properties":{"NAME":"Bezirksmuseum Donaustadt","BEZIRK":22,"ADRESSE":"22., Kagraner Platz 53+54","WEITERE_INF":"http://www.bezirksmuseum.at","SE_SDO_ROWID":101237,"SE_ANNO_CAD_DATA":null}},{"type":"Feature","id":"MUSEUMOGD.101238","geometry":{"type":"Point","coordinates":[16.37975876,48.21648304]},"geometry_name":"SHAPE","properties":{"NAME":"Bezirksmuseum Leopoldstadt","BEZIRK":2,"ADRESSE":"02., Karmelitiergasse 9","WEITERE_INF":"http://www.bezirksmuseum.at","SE_SDO_ROWID":101238,"SE_ANNO_CAD_DATA":null}},{"type":"Feature","id":"MUSEUMOGD.101239","geometry":{"type":"Point","coordinates":[16.37157618,48.20056342]},"geometry_name":"SHAPE","properties":{"NAME":"Künstlerhaus Vereinigung","BEZIRK":1,"ADRESSE":"01., Karlsplatz 5","WEITERE_INF":"http://www.k-haus.at/","SE_SDO_ROWID":101239,"SE_ANNO_CAD_DATA":null}},{"type":"Feature","id":"MUSEUMOGD.101240","geometry":{"type":"Point","coordinates":[16.38358977,48.18577983]},"geometry_name":"SHAPE","properties":{"NAME":"Belvedere 21","BEZIRK":3,"ADRESSE":"03., Arsenalstraße 1","WEITERE_INF":"http://belvedere21.at/","SE_SDO_ROWID":101240,"SE_ANNO_CAD_DATA":null}},{"type":"Feature","id":"MUSEUMOGD.101241","geometry":{"type":"Point","coordinates":[16.36788463,48.20018708]},"geometry_name":"SHAPE","properties":{"NAME":"Kunsthalle Wien Karlsplatz","BEZIRK":4,"ADRESSE":"04., Karlsplatz/Treitlstraße 2","WEITERE_INF":"http://www.kunsthallewien.at/","SE_SDO_ROWID":101241,"SE_ANNO_CAD_DATA":null}},{"type":"Feature","id":"MUSEUMOGD.101242","geometry":{"type":"Point","coordinates":[16.35796481,48.20374685]},"geometry_name":"SHAPE","properties":{"NAME":"mumok - Museum moderner Kunst Stiftung Ludwig Wien","BEZIRK":7,"ADRESSE":"07., Museumsplatz 1","WEITERE_INF":"http://www.mumok.at/","SE_SDO_ROWID":101242,"SE_ANNO_CAD_DATA":null}},{"type":"Feature","id":"MUSEUMOGD.101243","geometry":{"type":"Point","coordinates":[16.36585436,48.20670427]},"geometry_name":"SHAPE","properties":{"NAME":"Kaiserliche Schatzkammer Wien","BEZIRK":1,"ADRESSE":"01., Hofburg, Schweizerhof","WEITERE_INF":"http://www.kaiserliche-schatzkammer.at","SE_SDO_ROWID":101243,"SE_ANNO_CAD_DATA":null}},{"type":"Feature","id":"MUSEUMOGD.101244","geometry":{"type":"Point","coordinates":[16.36532351,48.20175142]},"geometry_name":"SHAPE","properties":{"NAME":"Gemäldegalerie der Akademie der bildenden Künste","BEZIRK":1,"ADRESSE":"01., Schillerplatz 3","WEITERE_INF":"https://www.kunstsammlungenakademie.at/","SE_SDO_ROWID":101244,"SE_ANNO_CAD_DATA":null}},{"type":"Feature","id":"MUSEUMOGD.101245","geometry":{"type":"Point","coordinates":[16.3470547,48.19869495]},"geometry_name":"SHAPE","properties":{"NAME":"Möbelmuseum Wien","BEZIRK":7,"ADRESSE":"07., Andreasgasse 7","WEITERE_INF":"http://www.moebelmuseumwien.at","SE_SDO_ROWID":101245,"SE_ANNO_CAD_DATA":null}},{"type":"Feature","id":"MUSEUMOGD.101246","geometry":{"type":"Point","coordinates":[16.30981865,48.18622337]},"geometry_name":"SHAPE","properties":{"NAME":"Kaiserliche Wagenburg Wien","BEZIRK":13,"ADRESSE":"13., Schloss Schönbrunn","WEITERE_INF":"http://www.kaiserliche-wagenburg.at","SE_SDO_ROWID":101246,"SE_ANNO_CAD_DATA":null}},{"type":"Feature","id":"MUSEUMOGD.101247","geometry":{"type":"Point","coordinates":[16.37616466,48.2040792]},"geometry_name":"SHAPE","properties":{"NAME":"Nitsch Foundation","BEZIRK":1,"ADRESSE":"01., Hegelgasse 5","WEITERE_INF":"http://www.nitsch-foundation.com","SE_SDO_ROWID":101247,"SE_ANNO_CAD_DATA":null}},{"type":"Feature","id":"MUSEUMOGD.101248","geometry":{"type":"Point","coordinates":[16.36205454,48.21243327]},"geometry_name":"SHAPE","properties":{"NAME":"Beethoven Pasqualatihaus","BEZIRK":1,"ADRESSE":"01., Mölker Bastei 8","WEITERE_INF":"https://www.wienmuseum.at/beethoven_pasqualatihaus","SE_SDO_ROWID":101248,"SE_ANNO_CAD_DATA":null}},{"type":"Feature","id":"MUSEUMOGD.101249","geometry":{"type":"Point","coordinates":[16.39687457,48.21690941]},"geometry_name":"SHAPE","properties":{"NAME":"Pratermuseum","BEZIRK":2,"ADRESSE":"02., Prater 92 (Straße des 1. Mai)","WEITERE_INF":"https://www.wienmuseum.at/pratermuseum","SE_SDO_ROWID":101249,"SE_ANNO_CAD_DATA":null}},{"type":"Feature","id":"MUSEUMOGD.101250","geometry":{"type":"Point","coordinates":[16.44114208,48.1541781]},"geometry_name":"SHAPE","properties":{"NAME":"Bestattungsmuseum am Wiener Zentralfriedhof","BEZIRK":11,"ADRESSE":"11., Simmeringer Hauptstraße 234","WEITERE_INF":"http://www.bestattungsmuseum.at","SE_SDO_ROWID":101250,"SE_ANNO_CAD_DATA":null}},{"type":"Feature","id":"MUSEUMOGD.101251","geometry":{"type":"Point","coordinates":[16.36696972,48.20959808]},"geometry_name":"SHAPE","properties":{"NAME":"Museum der Illusionen","BEZIRK":1,"ADRESSE":"01., Wallnerstraße 4","WEITERE_INF":"https://museumderillusionen.at","SE_SDO_ROWID":101251,"SE_ANNO_CAD_DATA":null}},{"type":"Feature","id":"MUSEUMOGD.101252","geometry":{"type":"Point","coordinates":[16.36328823,48.20507483]},"geometry_name":"SHAPE","properties":{"NAME":"Weltmuseum Wien","BEZIRK":1,"ADRESSE":"01., Hofburg, Heldenplatz","WEITERE_INF":"http://www.weltmuseumwien.at","SE_SDO_ROWID":101252,"SE_ANNO_CAD_DATA":null}},{"type":"Feature","id":"MUSEUMOGD.101253","geometry":{"type":"Point","coordinates":[16.36834751,48.20836199]},"geometry_name":"SHAPE","properties":{"NAME":"Immersium:Wien","BEZIRK":1,"ADRESSE":"01., Habsburgergasse 10","WEITERE_INF":"https://immersium.com/","SE_SDO_ROWID":101253,"SE_ANNO_CAD_DATA":null}},{"type":"Feature","id":"MUSEUMOGD.101254","geometry":{"type":"Point","coordinates":[16.35760776,48.20417262]},"geometry_name":"SHAPE","properties":{"NAME":"Foto Arsenal Wien","BEZIRK":7,"ADRESSE":"07., Museumsplatz 1","WEITERE_INF":"https://www.fotoarsenalwien.at/","SE_SDO_ROWID":101254,"SE_ANNO_CAD_DATA":null}},{"type":"Feature","id":"MUSEUMOGD.101255","geometry":{"type":"Point","coordinates":[16.36224504,48.20537551]},"geometry_name":"SHAPE","properties":{"NAME":"House of Habsburg Tour","BEZIRK":1,"ADRESSE":"01., Neue Hofburg, Heldenplatz","WEITERE_INF":"https://www.houseofhabsburg.at/","SE_SDO_ROWID":101255,"SE_ANNO_CAD_DATA":null}},{"type":"Feature","id":"MUSEUMOGD.101256","geometry":{"type":"Point","coordinates":[16.36304495,48.21865294]},"geometry_name":"SHAPE","properties":{"NAME":"Anna Freud","BEZIRK":9,"ADRESSE":"09., Berggasse 19","WEITERE_INF":"https://www.freud-museum.at","SE_SDO_ROWID":101256,"SE_ANNO_CAD_DATA":null}},{"type":"Feature","id":"MUSEUMOGD.101257","geometry":{"type":"Point","coordinates":[16.31773599,48.19022535]},"geometry_name":"SHAPE","properties":{"NAME":"Nannette Streicher","BEZIRK":14,"ADRESSE":"14., Mariahilfer Straße 212","WEITERE_INF":"http://www.technischesmuseum.at","SE_SDO_ROWID":101257,"SE_ANNO_CAD_DATA":null}},{"type":"Feature","id":"MUSEUMOGD.101258","geometry":{"type":"Point","coordinates":[16.35946455,48.19500677]},"geometry_name":"SHAPE","properties":{"NAME":"Margarete Schütte-Lihotzky","BEZIRK":5,"ADRESSE":"05., Franzensgasse 16","WEITERE_INF":"http://www.schuette-lihotzky.at","SE_SDO_ROWID":101258,"SE_ANNO_CAD_DATA":null}},{"type":"Feature","id":"MUSEUMOGD.101259","geometry":{"type":"Point","coordinates":[16.36597528,48.2077547]},"geometry_name":"SHAPE","properties":{"NAME":"Kaiserin Elisabeth","BEZIRK":1,"ADRESSE":"01., Michaelerplatz","WEITERE_INF":"http://www.sisimuseum-hofburg.at","SE_SDO_ROWID":101259,"SE_ANNO_CAD_DATA":null}},{"type":"Feature","id":"MUSEUMOGD.101260","geometry":{"type":"Point","coordinates":[16.36008793,48.20486869]},"geometry_name":"SHAPE","properties":{"NAME":"Venus von Willendorf","BEZIRK":1,"ADRESSE":"01., Burgring 7","WEITERE_INF":"http://www.nhm-wien.ac.at","SE_SDO_ROWID":101260,"SE_ANNO_CAD_DATA":null}},{"type":"Feature","id":"MUSEUMOGD.101261","geometry":{"type":"Point","coordinates":[16.38298537,48.21859258]},"geometry_name":"SHAPE","properties":{"NAME":"Hands Up","BEZIRK":2,"ADRESSE":"02., Blumauergasse 6","WEITERE_INF":"https://handsup.wien/","SE_SDO_ROWID":101261,"SE_ANNO_CAD_DATA":null}},{"type":"Feature","id":"MUSEUMOGD.101262","geometry":{"type":"Point","coordinates":[16.37577934,48.20516575]},"geometry_name":"SHAPE","properties":{"NAME":"Wiener Aktionismus Museum","BEZIRK":1,"ADRESSE":"01., Weihburggasse 26","WEITERE_INF":"https://wieneraktionismus.at","SE_SDO_ROWID":101262,"SE_ANNO_CAD_DATA":null}}],"totalFeatures":146,"numberMatched":146,"numberReturned":146,"timeStamp":"2024-04-07T16:47:15.372Z","crs":{"type":"name","properties":{"name":"urn:ogc:def:crs:EPSG::4326"}}}