{"type":"FeatureCollection","features":[{"type":"Feature","id":"PARKINFOOGD.2008247","geometry":{"type":"Point","coordinates":[16.28246849,48.1445059]},"geometry_name":"SHAPE","properties":{"OBJECTID":2008247,"ANL_NAME":"Fridtjof-Nansen-Park","BEZIRK":23,"FLAECHE":"56.607 m²","OEFF_ZEITEN":"0:00-24:00","SPIELEN_IM_PARK":"Ja","WASSER_IM_PARK":"Ja","HUNDE_IM_PARK":"Ja","TELEFON":"01 4000 8042","WEBLINK1":"http://www.wien.gv.at/umwelt/parks/anlagen/index.html","SE_ANNO_CAD_DATA":null}},{"type":"Feature","id":"PARKINFOOGD.2008248","geometry":{"type":"Point","coordinates":[16.46680407,48.22407344]},"geometry_name":"SHAPE","properties":{"OBJECTID":2008248,"ANL_NAME":"PA Rosmaringasse","BEZIRK":22,"FLAECHE":"3.194 m²","OEFF_ZEITEN":"Ballspielplatz: Okt-April: 9:00-19:00, Mai-Sep: 9:00-21:00","SPIELEN_IM_PARK":"Ja","WASSER_IM_PARK":"Ja","HUNDE_IM_PARK":"Nein","TELEFON":"01 4000 8042","WEBLINK1":"http://www.wien.gv.at/umwelt/parks/anlagen/index.html","SE_ANNO_CAD_DATA":null}},{"type":"Feature","id":"PARKINFOOGD.2008249","geometry":{"type":"Point","coordinates":[16.31446505,48.14176361]},"geometry_name":"SHAPE","properties":{"OBJECTID":2008249,"ANL_NAME":"PA Friedhof Erlaa","BEZIRK":23,"FLAECHE":"2.544 m²","OEFF_ZEITEN":"0:00-24:00","SPIELEN_IM_PARK":"Nein","WASSER_IM_PARK":"Nein","HUNDE_IM_PARK":"Nein","TELEFON":"01 4000 8042","WEBLINK1":"http://www.wien.gv.at/umwelt/parks/anlagen/index.html","SE_ANNO_CAD_DATA":null}},{"type":"Feature","id":"PARKINFOOGD.2008250","geometry":{"type":"Point","coordinates":[16.26803418,48.13437415]},"geometry_name":"SHAPE","properties":{"OBJECTID":2008250,"ANL_NAME":"Engelbert-Schliemann-Park","BEZIRK":23,"FLAECHE":"2.275 m²","OEFF_ZEITEN":"0:00-24:00","SPIELEN_IM_PARK":"Nein","WASSER_IM_PARK":"Nein","HUNDE_IM_PARK":"Nein","TELEFON":"01 4000 8042","WEBLINK1":"http://www.wien.gv.at/umwelt/parks/anlagen/index.html","SE_ANNO_CAD_DATA":null}},{"type":"Feature","id":"PARKINFOOGD.2008251","geometry":{"type":"Point","coordinates":[16.29136023,48.15307929]},"geometry_name":"SHAPE","properties":{"OBJECTID":2008251,"ANL_NAME":"PA Endemanngasse","BEZIRK":23,"FLAECHE":"736 m²","OEFF_ZEITEN":"0:00-24:00","SPIELEN_IM_PARK":"Nein","WASSER_IM_PARK":"Ja","HUNDE_IM_PARK":"Ja","TELEFON":"01 4000 8042","WEBLINK1":"http://www.wien.gv.at/umwelt/parks/anlagen/index.html","SE_ANNO_CAD_DATA":null}},{"type":"Feature","id":"PARKINFOOGD.2008252","geometry":{"type":"Point","coordinates":[16.2736969,48.15621703]},"geometry_name":"SHAPE","properties":{"OBJECTID":2008252,"ANL_NAME":"Druk-Yul-Park","BEZIRK":23,"FLAECHE":"2.471 m²","OEFF_ZEITEN":"0:00-24:00","SPIELEN_IM_PARK":"Nein","WASSER_IM_PARK":"Nein","HUNDE_IM_PARK":"Nein","TELEFON":"01 4000 8042","WEBLINK1":"http://www.wien.gv.at/umwelt/parks/anlagen/index.html","SE_ANNO_CAD_DATA":null}},{"type":"Feature","id":"PARKINFOOGD.2008253","geometry":{"type":"Point","coordinates":[16.34189212,48.15181224]},"geometry_name":"SHAPE","properties":{"OBJECTID":2008253,"ANL_NAME":"Draschepark","BEZIRK":23,"FLAECHE":"123.130 m²","OEFF_ZEITEN":"0:00-24:00","SPIELEN_IM_PARK":"Ja","WASSER_IM_PARK":"Ja","HUNDE_IM_PARK":"Ja","TELEFON":"01 4000 8042","WEBLINK1":"http://www.wien.gv.at/umwelt/parks/anlagen/index.html","SE_ANNO_CAD_DATA":null}},{"type":"Feature","id":"PARKINFOOGD.2008254","geometry":{"type":"Point","coordinates":[16.29646967,48.14373683]},"geometry_name":"SHAPE","properties":{"OBJECTID":2008254,"ANL_NAME":"Dr.-Rudolf-Hatschek-Park","BEZIRK":23,"FLAECHE":"1.546 m²","OEFF_ZEITEN":"0:00-24:00","SPIELEN_IM_PARK":"Nein","WASSER_IM_PARK":"Nein","HUNDE_IM_PARK":"Nein","TELEFON":"01 4000 8042","WEBLINK1":"http://www.wien.gv.at/umwelt/parks/anlagen/index.html","SE_ANNO_CAD_DATA":null}},{"type":"Feature","id":"PARKINFOOGD.2008255","geometry":{"type":"Point","coordinates":[16.28676144,48.14542015]},"geometry_name":"SHAPE","properties":{"OBJECTID":2008255,"ANL_NAME":"PA Dirmhirngasse","BEZIRK":23,"FLAECHE":"7.935 m²","OEFF_ZEITEN":"0:00-24:00","SPIELEN_IM_PARK":"Nein","WASSER_IM_PARK":"Nein","HUNDE_IM_PARK":"Nein","TELEFON":"01 4000 8042","WEBLINK1":"http://www.wien.gv.at/umwelt/parks/anlagen/index.html","SE_ANNO_CAD_DATA":null}},{"type":"Feature","id":"PARKINFOOGD.2008256","geometry":{"type":"Point","coordinates":[16.30649828,48.15489535]},"geometry_name":"SHAPE","properties":{"OBJECTID":2008256,"ANL_NAME":"PA Chromygasse","BEZIRK":23,"FLAECHE":"3.016 m²","OEFF_ZEITEN":"0:00-24:00","SPIELEN_IM_PARK":"Nein","WASSER_IM_PARK":"Nein","HUNDE_IM_PARK":"Nein","TELEFON":"01 4000 8042","WEBLINK1":"http://www.wien.gv.at/umwelt/parks/anlagen/index.html","SE_ANNO_CAD_DATA":null}},{"type":"Feature","id":"PARKINFOOGD.2008257","geometry":{"type":"Point","coordinates":[16.31538948,48.14000337]},"geometry_name":"SHAPE","properties":{"OBJECTID":2008257,"ANL_NAME":"PaN-Park","BEZIRK":23,"FLAECHE":"14.523 m²","OEFF_ZEITEN":"0:00-24:00","SPIELEN_IM_PARK":"Ja","WASSER_IM_PARK":"Ja","HUNDE_IM_PARK":"Nein","TELEFON":"01 4000 8042","WEBLINK1":"http://www.wien.gv.at/umwelt/parks/anlagen/index.html","SE_ANNO_CAD_DATA":null}},{"type":"Feature","id":"PARKINFOOGD.2008258","geometry":{"type":"Point","coordinates":[16.31275621,48.12867798]},"geometry_name":"SHAPE","properties":{"OBJECTID":2008258,"ANL_NAME":"PA Basler Gasse","BEZIRK":23,"FLAECHE":"3.055 m²","OEFF_ZEITEN":"Ballspielkäfig:Mai-Okt: 08:00-20:00, Nov-Apr: keine Sperre","SPIELEN_IM_PARK":"Ja","WASSER_IM_PARK":"Ja","HUNDE_IM_PARK":"Nein","TELEFON":"01 4000 8042","WEBLINK1":"http://www.wien.gv.at/umwelt/parks/anlagen/index.html","SE_ANNO_CAD_DATA":null}},{"type":"Feature","id":"PARKINFOOGD.2008259","geometry":{"type":"Point","coordinates":[16.31200273,48.15553004]},"geometry_name":"SHAPE","properties":{"OBJECTID":2008259,"ANL_NAME":"PA Auer-Welsbach-Straße","BEZIRK":23,"FLAECHE":"13.837 m²","OEFF_ZEITEN":"0:00-24:00","SPIELEN_IM_PARK":"Nein","WASSER_IM_PARK":"Nein","HUNDE_IM_PARK":"Ja","TELEFON":"01 4000 8042","WEBLINK1":"http://www.wien.gv.at/umwelt/parks/anlagen/index.html","SE_ANNO_CAD_DATA":null}},{"type":"Feature","id":"PARKINFOOGD.2008260","geometry":{"type":"Point","coordinates":[16.29647585,48.14221642]},"geometry_name":"SHAPE","properties":{"OBJECTID":2008260,"ANL_NAME":"PA Anton-Heger-Platz","BEZIRK":23,"FLAECHE":"1.179 m²","OEFF_ZEITEN":"0:00-24:00","SPIELEN_IM_PARK":"Ja","WASSER_IM_PARK":"Ja","HUNDE_IM_PARK":"Nein","TELEFON":"01 4000 8042","WEBLINK1":"http://www.wien.gv.at/umwelt/parks/anlagen/index.html","SE_ANNO_CAD_DATA":null}},{"type":"Feature","id":"PARKINFOOGD.2008261","geometry":{"type":"Point","coordinates":[16.48061701,48.24142478]},"geometry_name":"SHAPE","properties":{"OBJECTID":2008261,"ANL_NAME":"PA Ziegelhofstraße","BEZIRK":22,"FLAECHE":"4.449 m²","OEFF_ZEITEN":"0:00-24:00","SPIELEN_IM_PARK":"Ja","WASSER_IM_PARK":"Ja","HUNDE_IM_PARK":"Nein","TELEFON":"01 4000 8042","WEBLINK1":"http://www.wien.gv.at/umwelt/parks/anlagen/index.html","SE_ANNO_CAD_DATA":null}},{"type":"Feature","id":"PARKINFOOGD.2008262","geometry":{"type":"Point","coordinates":[16.44966569,48.23765392]},"geometry_name":"SHAPE","properties":{"OBJECTID":2008262,"ANL_NAME":"PA Strakaweg","BEZIRK":22,"FLAECHE":"13.493 m²","OEFF_ZEITEN":"0:00-24:00","SPIELEN_IM_PARK":"Ja","WASSER_IM_PARK":"Ja","HUNDE_IM_PARK":"Nein","TELEFON":"01 4000 8042","WEBLINK1":"http://www.wien.gv.at/umwelt/parks/anlagen/index.html","SE_ANNO_CAD_DATA":null}},{"type":"Feature","id":"PARKINFOOGD.2008263","geometry":{"type":"Point","coordinates":[16.43390149,48.25250149]},"geometry_name":"SHAPE","properties":{"OBJECTID":2008263,"ANL_NAME":"PA Rudolf-Köppl-Gasse","BEZIRK":22,"FLAECHE":"4.462 m²","OEFF_ZEITEN":"0:00-24:00","SPIELEN_IM_PARK":"Ja","WASSER_IM_PARK":"Ja","HUNDE_IM_PARK":"Nein","TELEFON":"01 4000 8042","WEBLINK1":"http://www.wien.gv.at/umwelt/parks/anlagen/index.html","SE_ANNO_CAD_DATA":null}},{"type":"Feature","id":"PARKINFOOGD.2008264","geometry":{"type":"Point","coordinates":[16.46767515,48.23718143]},"geometry_name":"SHAPE","properties":{"OBJECTID":2008264,"ANL_NAME":"PA Anfanggasse","BEZIRK":22,"FLAECHE":"19.489 m²","OEFF_ZEITEN":"0:00-24:00","SPIELEN_IM_PARK":"Nein","WASSER_IM_PARK":"Nein","HUNDE_IM_PARK":"Nein","TELEFON":"01 4000 8042","WEBLINK1":"http://www.wien.gv.at/umwelt/parks/anlagen/index.html","SE_ANNO_CAD_DATA":null}},{"type":"Feature","id":"PARKINFOOGD.2008265","geometry":{"type":"Point","coordinates":[16.42511612,48.22695516]},"geometry_name":"SHAPE","properties":{"OBJECTID":2008265,"ANL_NAME":"Cholewkapark","BEZIRK":22,"FLAECHE":"5.474 m²","OEFF_ZEITEN":"0:00-24:00","SPIELEN_IM_PARK":"Nein","WASSER_IM_PARK":"Nein","HUNDE_IM_PARK":"Nein","TELEFON":"01 4000 8042","WEBLINK1":"http://www.wien.gv.at/umwelt/parks/anlagen/index.html","SE_ANNO_CAD_DATA":null}},{"type":"Feature","id":"PARKINFOOGD.2008266","geometry":{"type":"Point","coordinates":[16.41941797,48.22764296]},"geometry_name":"SHAPE","properties":{"OBJECTID":2008266,"ANL_NAME":"Hans-Hass-Park","BEZIRK":22,"FLAECHE":"3.373 m²","OEFF_ZEITEN":"0:00-24:00","SPIELEN_IM_PARK":"Ja","WASSER_IM_PARK":"Ja","HUNDE_IM_PARK":"Nein","TELEFON":"01 4000 8042","WEBLINK1":"http://www.wien.gv.at/umwelt/parks/anlagen/index.html","SE_ANNO_CAD_DATA":null}},{"type":"Feature","id":"PARKINFOOGD.2008267","geometry":{"type":"Point","coordinates":[16.33248009,48.19024134]},"geometry_name":"SHAPE","properties":{"OBJECTID":2008267,"ANL_NAME":"PA Henriettenplatz","BEZIRK":15,"FLAECHE":"1.528 m²","OEFF_ZEITEN":"Ballspielkäfig: Nov-März: 7:00-19:00, Apr-Okt: 7:00-21:00","SPIELEN_IM_PARK":"Ja","WASSER_IM_PARK":"Ja","HUNDE_IM_PARK":"Nein","TELEFON":"01 4000 8042","WEBLINK1":"http://www.wien.gv.at/umwelt/parks/anlagen/index.html","SE_ANNO_CAD_DATA":null}},{"type":"Feature","id":"PARKINFOOGD.2008268","geometry":{"type":"Point","coordinates":[16.3988836,48.24888628]},"geometry_name":"SHAPE","properties":{"OBJECTID":2008268,"ANL_NAME":"Ferdinand-Kaufmann-Platz","BEZIRK":21,"FLAECHE":"22.158 m²","OEFF_ZEITEN":"0:00-24:00","SPIELEN_IM_PARK":"Nein","WASSER_IM_PARK":"Ja","HUNDE_IM_PARK":"Ja","TELEFON":"01 4000 8042","WEBLINK1":"http://www.wien.gv.at/umwelt/parks/anlagen/index.html","SE_ANNO_CAD_DATA":null}},{"type":"Feature","id":"PARKINFOOGD.2008269","geometry":{"type":"Point","coordinates":[16.41298516,48.29707117]},"geometry_name":"SHAPE","properties":{"OBJECTID":2008269,"ANL_NAME":"PA Edi-Finger-Straße","BEZIRK":21,"FLAECHE":"1.311 m²","OEFF_ZEITEN":"0:00-24:00","SPIELEN_IM_PARK":"Ja","WASSER_IM_PARK":"Ja","HUNDE_IM_PARK":"Nein","TELEFON":"01 4000 8042","WEBLINK1":"http://www.wien.gv.at/umwelt/parks/anlagen/index.html","SE_ANNO_CAD_DATA":null}},{"type":"Feature","id":"PARKINFOOGD.2008270","geometry":{"type":"Point","coordinates":[16.3990278,48.21424191]},"geometry_name":"SHAPE","properties":{"OBJECTID":2008270,"ANL_NAME":"Prater - Schulverkehrsgartenwiese","BEZIRK":2,"FLAECHE":"5.173 m²","OEFF_ZEITEN":"0:00-24:00","SPIELEN_IM_PARK":"Ja","WASSER_IM_PARK":"Nein","HUNDE_IM_PARK":"Nein","TELEFON":"01 4000 8042","WEBLINK1":"http://www.wien.gv.at/umwelt/parks/anlagen/index.html","SE_ANNO_CAD_DATA":null}},{"type":"Feature","id":"PARKINFOOGD.2008271","geometry":{"type":"Point","coordinates":[16.40231008,48.21003891]},"geometry_name":"SHAPE","properties":{"OBJECTID":2008271,"ANL_NAME":"Prater - Spenadlwiese","BEZIRK":2,"FLAECHE":"27.207 m²","OEFF_ZEITEN":"0:00-24:00","SPIELEN_IM_PARK":"Nein","WASSER_IM_PARK":"Nein","HUNDE_IM_PARK":"Nein","TELEFON":"01 4000 8042","WEBLINK1":"http://www.wien.gv.at/umwelt/parks/anlagen/index.html","SE_ANNO_CAD_DATA":null}},{"type":"Feature","id":"PARKINFOOGD.2008272","geometry":{"type":"Point","coordinates":[16.28877529,48.18700371]},"geometry_name":"SHAPE","properties":{"OBJECTID":2008272,"ANL_NAME":"PA Neue-Welt-Gasse","BEZIRK":13,"FLAECHE":"232 m²","OEFF_ZEITEN":"0:00-24:00","SPIELEN_IM_PARK":"Nein","WASSER_IM_PARK":"Nein","HUNDE_IM_PARK":"Nein","TELEFON":"01 4000 8042","WEBLINK1":"http://www.wien.gv.at/umwelt/parks/anlagen/index.html","SE_ANNO_CAD_DATA":null}},{"type":"Feature","id":"PARKINFOOGD.2008273","geometry":{"type":"Point","coordinates":[16.26206366,48.19128763]},"geometry_name":"SHAPE","properties":{"OBJECTID":2008273,"ANL_NAME":"Erna-Reitmeyer-Park","BEZIRK":13,"FLAECHE":"1.175 m²","OEFF_ZEITEN":"0:00-24:00","SPIELEN_IM_PARK":"Nein","WASSER_IM_PARK":"Nein","HUNDE_IM_PARK":"Nein","TELEFON":"01 4000 8042","WEBLINK1":"http://www.wien.gv.at/umwelt/parks/anlagen/index.html","SE_ANNO_CAD_DATA":null}},{"type":"Feature","id":"PARKINFOOGD.2008274","geometry":{"type":"Point","coordinates":[16.26548253,48.18267789]},"geometry_name":"SHAPE","properties":{"OBJECTID":2008274,"ANL_NAME":"PA Clarplatz","BEZIRK":13,"FLAECHE":"830 m²","OEFF_ZEITEN":"0:00-24:00","SPIELEN_IM_PARK":"Nein","WASSER_IM_PARK":"Nein","HUNDE_IM_PARK":"Nein","TELEFON":"01 4000 8042","WEBLINK1":"http://www.wien.gv.at/umwelt/parks/anlagen/index.html","SE_ANNO_CAD_DATA":null}},{"type":"Feature","id":"PARKINFOOGD.2008275","geometry":{"type":"Point","coordinates":[16.28114588,48.16567757]},"geometry_name":"SHAPE","properties":{"OBJECTID":2008275,"ANL_NAME":"Andreas-Rett-Park","BEZIRK":13,"FLAECHE":"5.278 m²","OEFF_ZEITEN":"0:00-24:00","SPIELEN_IM_PARK":"Ja","WASSER_IM_PARK":"Ja","HUNDE_IM_PARK":"Nein","TELEFON":"01 4000 8042","WEBLINK1":"http://www.wien.gv.at/umwelt/parks/anlagen/index.html","SE_ANNO_CAD_DATA":null}},{"type":"Feature","id":"PARKINFOOGD.2008276","geometry":{"type":"Point","coordinates":[16.31936126,48.15862813]},"geometry_name":"SHAPE","properties":{"OBJECTID":2008276,"ANL_NAME":"PA Zanaschkagasse","BEZIRK":12,"FLAECHE":"5.228 m²","OEFF_ZEITEN":"Okt-März:06:00-21:00, Apr-Sep:06:00-21:30","SPIELEN_IM_PARK":"Ja","WASSER_IM_PARK":"Ja","HUNDE_IM_PARK":"Nein","TELEFON":"01 4000 8042","WEBLINK1":"http://www.wien.gv.at/umwelt/parks/anlagen/index.html","SE_ANNO_CAD_DATA":null}},{"type":"Feature","id":"PARKINFOOGD.2008277","geometry":{"type":"Point","coordinates":[16.33123429,48.17581465]},"geometry_name":"SHAPE","properties":{"OBJECTID":2008277,"ANL_NAME":"Vivenotpark","BEZIRK":12,"FLAECHE":"2.377 m²","OEFF_ZEITEN":"Okt-März:06:00-21:00, Apr-Sep:06:00-21:30","SPIELEN_IM_PARK":"Nein","WASSER_IM_PARK":"Ja","HUNDE_IM_PARK":"Nein","TELEFON":"01 4000 8042","WEBLINK1":"http://www.wien.gv.at/umwelt/parks/anlagen/index.html","SE_ANNO_CAD_DATA":null}},{"type":"Feature","id":"PARKINFOOGD.2008278","geometry":{"type":"Point","coordinates":[16.32858921,48.17296539]},"geometry_name":"SHAPE","properties":{"OBJECTID":2008278,"ANL_NAME":"Theodor-Körner-Park","BEZIRK":12,"FLAECHE":"6.504 m²","OEFF_ZEITEN":"0:00-24:00","SPIELEN_IM_PARK":"Ja","WASSER_IM_PARK":"Ja","HUNDE_IM_PARK":"Nein","TELEFON":"01 4000 8042","WEBLINK1":"http://www.wien.gv.at/umwelt/parks/anlagen/index.html","SE_ANNO_CAD_DATA":null}},{"type":"Feature","id":"PARKINFOOGD.2008279","geometry":{"type":"Point","coordinates":[16.30679255,48.16912205]},"geometry_name":"SHAPE","properties":{"OBJECTID":2008279,"ANL_NAME":"PA Schlöglgasse","BEZIRK":12,"FLAECHE":"10.929 m²","OEFF_ZEITEN":"0:00-24:00","SPIELEN_IM_PARK":"Ja","WASSER_IM_PARK":"Ja","HUNDE_IM_PARK":"Nein","TELEFON":"01 4000 8042","WEBLINK1":"http://www.wien.gv.at/umwelt/parks/anlagen/index.html","SE_ANNO_CAD_DATA":null}},{"type":"Feature","id":"PARKINFOOGD.2008280","geometry":{"type":"Point","coordinates":[16.3268554,48.17368395]},"geometry_name":"SHAPE","properties":{"OBJECTID":2008280,"ANL_NAME":"PA Wienerbergbrücke","BEZIRK":12,"FLAECHE":"1.390 m²","OEFF_ZEITEN":"0:00-24:00","SPIELEN_IM_PARK":"Nein","WASSER_IM_PARK":"Nein","HUNDE_IM_PARK":"Nein","TELEFON":"01 4000 8042","WEBLINK1":"http://www.wien.gv.at/umwelt/parks/anlagen/index.html","SE_ANNO_CAD_DATA":null}},{"type":"Feature","id":"PARKINFOOGD.2008281","geometry":{"type":"Point","coordinates":[16.32670198,48.15881844]},"geometry_name":"SHAPE","properties":{"OBJECTID":2008281,"ANL_NAME":"PA Schöpfwerk","BEZIRK":12,"FLAECHE":"9.446 m²","OEFF_ZEITEN":"0:00-24:00","SPIELEN_IM_PARK":"Ja","WASSER_IM_PARK":"Ja","HUNDE_IM_PARK":"Nein","TELEFON":"01 4000 8042","WEBLINK1":"http://www.wien.gv.at/umwelt/parks/anlagen/index.html","SE_ANNO_CAD_DATA":null}},{"type":"Feature","id":"PARKINFOOGD.2008282","geometry":{"type":"Point","coordinates":[16.40349102,48.2101824]},"geometry_name":"SHAPE","properties":{"OBJECTID":2008282,"ANL_NAME":"Prater - Konstantinhügel","BEZIRK":2,"FLAECHE":"16.175 m²","OEFF_ZEITEN":"0:00-24:00","SPIELEN_IM_PARK":"Nein","WASSER_IM_PARK":"Nein","HUNDE_IM_PARK":"Nein","TELEFON":"01 4000 8042","WEBLINK1":"http://www.wien.gv.at/umwelt/parks/anlagen/index.html","SE_ANNO_CAD_DATA":null}},{"type":"Feature","id":"PARKINFOOGD.2008283","geometry":{"type":"Point","coordinates":[16.30592832,48.16896003]},"geometry_name":"SHAPE","properties":{"OBJECTID":2008283,"ANL_NAME":"Karl-Voitl-Park","BEZIRK":12,"FLAECHE":"1.019 m²","OEFF_ZEITEN":"0:00-24:00","SPIELEN_IM_PARK":"Nein","WASSER_IM_PARK":"Nein","HUNDE_IM_PARK":"Nein","TELEFON":"01 4000 8042","WEBLINK1":"http://www.wien.gv.at/umwelt/parks/anlagen/index.html","SE_ANNO_CAD_DATA":null}},{"type":"Feature","id":"PARKINFOOGD.2008284","geometry":{"type":"Point","coordinates":[16.3064054,48.16572864]},"geometry_name":"SHAPE","properties":{"OBJECTID":2008284,"ANL_NAME":"Franz-Hübel-Park","BEZIRK":12,"FLAECHE":"10.112 m²","OEFF_ZEITEN":"0:00-24:00","SPIELEN_IM_PARK":"Ja","WASSER_IM_PARK":"Ja","HUNDE_IM_PARK":"Nein","TELEFON":"01 4000 8042","WEBLINK1":"http://www.wien.gv.at/umwelt/parks/anlagen/index.html","SE_ANNO_CAD_DATA":null}},{"type":"Feature","id":"PARKINFOOGD.2008285","geometry":{"type":"Point","coordinates":[16.30382089,48.16188072]},"geometry_name":"SHAPE","properties":{"OBJECTID":2008285,"ANL_NAME":"PA Hervicusgasse","BEZIRK":12,"FLAECHE":"4.706 m²","OEFF_ZEITEN":"0:00-24:00","SPIELEN_IM_PARK":"Ja","WASSER_IM_PARK":"Ja","HUNDE_IM_PARK":"Nein","TELEFON":"01 4000 8042","WEBLINK1":"http://www.wien.gv.at/umwelt/parks/anlagen/index.html","SE_ANNO_CAD_DATA":null}},{"type":"Feature","id":"PARKINFOOGD.2008286","geometry":{"type":"Point","coordinates":[16.30184809,48.16968876]},"geometry_name":"SHAPE","properties":{"OBJECTID":2008286,"ANL_NAME":"Friederike-Stoiber-Park","BEZIRK":12,"FLAECHE":"1.911 m²","OEFF_ZEITEN":"Okt-März:06:00-21:00, Apr-Sep:06:00-21:30","SPIELEN_IM_PARK":"Ja","WASSER_IM_PARK":"Nein","HUNDE_IM_PARK":"Nein","TELEFON":"01 4000 8042","WEBLINK1":"http://www.wien.gv.at/umwelt/parks/anlagen/index.html","SE_ANNO_CAD_DATA":null}},{"type":"Feature","id":"PARKINFOOGD.2008287","geometry":{"type":"Point","coordinates":[16.33702383,48.17787944]},"geometry_name":"SHAPE","properties":{"OBJECTID":2008287,"ANL_NAME":"PA Canalettogasse","BEZIRK":12,"FLAECHE":"310 m²","OEFF_ZEITEN":"Okt-März:06:00-21:00, Apr-Sep:06:00-21:30","SPIELEN_IM_PARK":"Nein","WASSER_IM_PARK":"Nein","HUNDE_IM_PARK":"Nein","TELEFON":"01 4000 8042","WEBLINK1":"http://www.wien.gv.at/umwelt/parks/anlagen/index.html","SE_ANNO_CAD_DATA":null}},{"type":"Feature","id":"PARKINFOOGD.2008288","geometry":{"type":"Point","coordinates":[16.40991768,48.21117841]},"geometry_name":"SHAPE","properties":{"OBJECTID":2008288,"ANL_NAME":"Prater - Rotundenwiese","BEZIRK":2,"FLAECHE":"2.993 m²","OEFF_ZEITEN":"0:00-24:00","SPIELEN_IM_PARK":"Nein","WASSER_IM_PARK":"Nein","HUNDE_IM_PARK":"Nein","TELEFON":"01 4000 8042","WEBLINK1":"http://www.wien.gv.at/umwelt/parks/anlagen/index.html","SE_ANNO_CAD_DATA":null}},{"type":"Feature","id":"PARKINFOOGD.2008289","geometry":{"type":"Point","coordinates":[16.32637863,48.16444603]},"geometry_name":"SHAPE","properties":{"OBJECTID":2008289,"ANL_NAME":"Miep-Gies-Park","BEZIRK":12,"FLAECHE":"12.603 m²","OEFF_ZEITEN":"Hundezone:Okt-März:06:00-21:00, Apr-Sep:06:00-21:30","SPIELEN_IM_PARK":"Ja","WASSER_IM_PARK":"Ja","HUNDE_IM_PARK":"Ja","TELEFON":"01 4000 8042","WEBLINK1":"http://www.wien.gv.at/umwelt/parks/anlagen/index.html","SE_ANNO_CAD_DATA":null}},{"type":"Feature","id":"PARKINFOOGD.2008290","geometry":{"type":"Point","coordinates":[16.3159472,48.2423942]},"geometry_name":"SHAPE","properties":{"OBJECTID":2008290,"ANL_NAME":"PA Glanzinggasse","BEZIRK":19,"FLAECHE":"1.262 m²","OEFF_ZEITEN":"0:00-24:00","SPIELEN_IM_PARK":"Nein","WASSER_IM_PARK":"Nein","HUNDE_IM_PARK":"Nein","TELEFON":"01 4000 8042","WEBLINK1":"http://www.wien.gv.at/umwelt/parks/anlagen/index.html","SE_ANNO_CAD_DATA":null}},{"type":"Feature","id":"PARKINFOOGD.2008291","geometry":{"type":"Point","coordinates":[16.30889663,48.24098822]},"geometry_name":"SHAPE","properties":{"OBJECTID":2008291,"ANL_NAME":"Pötzleinsdorfer Schloßpark","BEZIRK":18,"FLAECHE":"348.633 m²","OEFF_ZEITEN":"Okt-Mär: 8:00-18:00, Apr-Sep: 7:00-21:00 (Sperrzeiten witterungsabhängig)","SPIELEN_IM_PARK":"Ja","WASSER_IM_PARK":"Ja","HUNDE_IM_PARK":"Nein","TELEFON":"01 4000 8042","WEBLINK1":"http://www.wien.gv.at/umwelt/parks/anlagen/index.html","SE_ANNO_CAD_DATA":null}},{"type":"Feature","id":"PARKINFOOGD.2008292","geometry":{"type":"Point","coordinates":[16.31586844,48.23970324]},"geometry_name":"SHAPE","properties":{"OBJECTID":2008292,"ANL_NAME":"PA Pötzleinsdorfer Straße","BEZIRK":18,"FLAECHE":"794 m²","OEFF_ZEITEN":"0:00-24:00","SPIELEN_IM_PARK":"Nein","WASSER_IM_PARK":"Nein","HUNDE_IM_PARK":"Nein","TELEFON":"01 4000 8042","WEBLINK1":"http://www.wien.gv.at/umwelt/parks/anlagen/index.html","SE_ANNO_CAD_DATA":null}},{"type":"Feature","id":"PARKINFOOGD.2008293","geometry":{"type":"Point","coordinates":[16.32338492,48.22662117]},"geometry_name":"SHAPE","properties":{"OBJECTID":2008293,"ANL_NAME":"PA Lazargasse","BEZIRK":17,"FLAECHE":"1.211 m²","OEFF_ZEITEN":"0:00-24:00","SPIELEN_IM_PARK":"Nein","WASSER_IM_PARK":"Nein","HUNDE_IM_PARK":"Nein","TELEFON":"01 4000 8042","WEBLINK1":"http://www.wien.gv.at/umwelt/parks/anlagen/index.html","SE_ANNO_CAD_DATA":null}},{"type":"Feature","id":"PARKINFOOGD.2008294","geometry":{"type":"Point","coordinates":[16.34480206,48.22524327]},"geometry_name":"SHAPE","properties":{"OBJECTID":2008294,"ANL_NAME":"PA Kutschkergasse","BEZIRK":18,"FLAECHE":"237 m²","OEFF_ZEITEN":"0:00-24:00","SPIELEN_IM_PARK":"Ja","WASSER_IM_PARK":"Nein","HUNDE_IM_PARK":"Nein","TELEFON":"01 4000 8042","WEBLINK1":"http://www.wien.gv.at/umwelt/parks/anlagen/index.html","SE_ANNO_CAD_DATA":null}},{"type":"Feature","id":"PARKINFOOGD.2008295","geometry":{"type":"Point","coordinates":[16.28291818,48.22586046]},"geometry_name":"SHAPE","properties":{"OBJECTID":2008295,"ANL_NAME":"PA Röntgengasse","BEZIRK":17,"FLAECHE":"2.175 m²","OEFF_ZEITEN":"0:00-24:00","SPIELEN_IM_PARK":"Ja","WASSER_IM_PARK":"Ja","HUNDE_IM_PARK":"Nein","TELEFON":"01 4000 8042","WEBLINK1":"http://www.wien.gv.at/umwelt/parks/anlagen/index.html","SE_ANNO_CAD_DATA":null}},{"type":"Feature","id":"PARKINFOOGD.2008296","geometry":{"type":"Point","coordinates":[16.31453299,48.22348897]},"geometry_name":"SHAPE","properties":{"OBJECTID":2008296,"ANL_NAME":"Park der Freiheit","BEZIRK":17,"FLAECHE":"1.267 m²","OEFF_ZEITEN":"0:00-24:00","SPIELEN_IM_PARK":"Nein","WASSER_IM_PARK":"Ja","HUNDE_IM_PARK":"Nein","TELEFON":"01 4000 8042","WEBLINK1":"http://www.wien.gv.at/umwelt/parks/anlagen/index.html","SE_ANNO_CAD_DATA":null}},{"type":"Feature","id":"PARKINFOOGD.2008297","geometry":{"type":"Point","coordinates":[16.29084604,48.22486884]},"geometry_name":"SHAPE","properties":{"OBJECTID":2008297,"ANL_NAME":"PA Franz-Glaser-Gasse","BEZIRK":17,"FLAECHE":"3.567 m²","OEFF_ZEITEN":"0:00-24:00","SPIELEN_IM_PARK":"Nein","WASSER_IM_PARK":"Nein","HUNDE_IM_PARK":"Nein","TELEFON":"01 4000 8042","WEBLINK1":"http://www.wien.gv.at/umwelt/parks/anlagen/index.html","SE_ANNO_CAD_DATA":null}},{"type":"Feature","id":"PARKINFOOGD.2008298","geometry":{"type":"Point","coordinates":[16.29137412,48.2337027]},"geometry_name":"SHAPE","properties":{"OBJECTID":2008298,"ANL_NAME":"PA Dornbacher Straße","BEZIRK":17,"FLAECHE":"490 m²","OEFF_ZEITEN":"0:00-24:00","SPIELEN_IM_PARK":"Nein","WASSER_IM_PARK":"Ja","HUNDE_IM_PARK":"Nein","TELEFON":"01 4000 8042","WEBLINK1":"http://www.wien.gv.at/umwelt/parks/anlagen/index.html","SE_ANNO_CAD_DATA":null}},{"type":"Feature","id":"PARKINFOOGD.2008299","geometry":{"type":"Point","coordinates":[16.33030106,48.22315386]},"geometry_name":"SHAPE","properties":{"OBJECTID":2008299,"ANL_NAME":"Diepoldpark","BEZIRK":17,"FLAECHE":"3.721 m²","OEFF_ZEITEN":"0:00-24:00","SPIELEN_IM_PARK":"Ja","WASSER_IM_PARK":"Ja","HUNDE_IM_PARK":"Nein","TELEFON":"01 4000 8042","WEBLINK1":"http://www.wien.gv.at/umwelt/parks/anlagen/index.html","SE_ANNO_CAD_DATA":null}},{"type":"Feature","id":"PARKINFOOGD.2008300","geometry":{"type":"Point","coordinates":[16.32109679,48.21277931]},"geometry_name":"SHAPE","properties":{"OBJECTID":2008300,"ANL_NAME":"PA Wichtelgasse","BEZIRK":16,"FLAECHE":"3.761 m²","OEFF_ZEITEN":"März-Nov: 06:00-19:30, Dez-Feb: keine Sperre","SPIELEN_IM_PARK":"Ja","WASSER_IM_PARK":"Ja","HUNDE_IM_PARK":"Nein","TELEFON":"01 4000 8042","WEBLINK1":"http://www.wien.gv.at/umwelt/parks/anlagen/index.html","SE_ANNO_CAD_DATA":null}},{"type":"Feature","id":"PARKINFOOGD.2008301","geometry":{"type":"Point","coordinates":[16.32844365,48.21247804]},"geometry_name":"SHAPE","properties":{"OBJECTID":2008301,"ANL_NAME":"Karl-Hodina-Park","BEZIRK":16,"FLAECHE":"900 m²","OEFF_ZEITEN":"0:00-24:00","SPIELEN_IM_PARK":"Nein","WASSER_IM_PARK":"Nein","HUNDE_IM_PARK":"Nein","TELEFON":"01 4000 8042","WEBLINK1":"http://www.wien.gv.at/umwelt/parks/anlagen/index.html","SE_ANNO_CAD_DATA":null}},{"type":"Feature","id":"PARKINFOOGD.2008302","geometry":{"type":"Point","coordinates":[16.31255586,48.21544136]},"geometry_name":"SHAPE","properties":{"OBJECTID":2008302,"ANL_NAME":"PA Mildeplatz","BEZIRK":16,"FLAECHE":"2.941 m²","OEFF_ZEITEN":"Ballspielkäfig: März-Nov: 07:00-21:00, Dez-Feb: keine Sperre","SPIELEN_IM_PARK":"Ja","WASSER_IM_PARK":"Ja","HUNDE_IM_PARK":"Nein","TELEFON":"01 4000 8042","WEBLINK1":"http://www.wien.gv.at/umwelt/parks/anlagen/index.html","SE_ANNO_CAD_DATA":null}},{"type":"Feature","id":"PARKINFOOGD.2008303","geometry":{"type":"Point","coordinates":[16.31945813,48.2129157]},"geometry_name":"SHAPE","properties":{"OBJECTID":2008303,"ANL_NAME":"PA Lambertgasse","BEZIRK":16,"FLAECHE":"258 m²","OEFF_ZEITEN":"0:00-24:00","SPIELEN_IM_PARK":"Nein","WASSER_IM_PARK":"Ja","HUNDE_IM_PARK":"Nein","TELEFON":"01 4000 8042","WEBLINK1":"http://www.wien.gv.at/umwelt/parks/anlagen/index.html","SE_ANNO_CAD_DATA":null}},{"type":"Feature","id":"PARKINFOOGD.2008304","geometry":{"type":"Point","coordinates":[16.40845565,48.20756218]},"geometry_name":"SHAPE","properties":{"OBJECTID":2008304,"ANL_NAME":"Prater - Arenawiese","BEZIRK":2,"FLAECHE":"58.590 m²","OEFF_ZEITEN":"0:00-24:00","SPIELEN_IM_PARK":"Nein","WASSER_IM_PARK":"Nein","HUNDE_IM_PARK":"Nein","TELEFON":"01 4000 8042","WEBLINK1":"http://www.wien.gv.at/umwelt/parks/anlagen/index.html","SE_ANNO_CAD_DATA":null}},{"type":"Feature","id":"PARKINFOOGD.2008305","geometry":{"type":"Point","coordinates":[16.2942408,48.2152067]},"geometry_name":"SHAPE","properties":{"OBJECTID":2008305,"ANL_NAME":"Katharinenruhe","BEZIRK":16,"FLAECHE":"657 m²","OEFF_ZEITEN":"0:00-24:00","SPIELEN_IM_PARK":"Ja","WASSER_IM_PARK":"Nein","HUNDE_IM_PARK":"Nein","TELEFON":"01 4000 8042","WEBLINK1":"http://www.wien.gv.at/umwelt/parks/anlagen/index.html","SE_ANNO_CAD_DATA":null}},{"type":"Feature","id":"PARKINFOOGD.2008306","geometry":{"type":"Point","coordinates":[16.3376501,48.18981581]},"geometry_name":"SHAPE","properties":{"OBJECTID":2008306,"ANL_NAME":"PA Sechshauser Gürtel","BEZIRK":15,"FLAECHE":"1.188 m²","OEFF_ZEITEN":"0:00-24:00","SPIELEN_IM_PARK":"Nein","WASSER_IM_PARK":"Ja","HUNDE_IM_PARK":"Ja","TELEFON":"01 4000 8042","WEBLINK1":"http://www.wien.gv.at/umwelt/parks/anlagen/index.html","SE_ANNO_CAD_DATA":null}},{"type":"Feature","id":"PARKINFOOGD.2008307","geometry":{"type":"Point","coordinates":[16.33207905,48.19424245]},"geometry_name":"SHAPE","properties":{"OBJECTID":2008307,"ANL_NAME":"PA Rosinagasse","BEZIRK":15,"FLAECHE":"689 m²","OEFF_ZEITEN":"0:00-24:00","SPIELEN_IM_PARK":"Ja","WASSER_IM_PARK":"Nein","HUNDE_IM_PARK":"Nein","TELEFON":"01 4000 8042","WEBLINK1":"http://www.wien.gv.at/umwelt/parks/anlagen/index.html","SE_ANNO_CAD_DATA":null}},{"type":"Feature","id":"PARKINFOOGD.2008308","geometry":{"type":"Point","coordinates":[16.32686679,48.18882723]},"geometry_name":"SHAPE","properties":{"OBJECTID":2008308,"ANL_NAME":"PA Oelweingasse","BEZIRK":15,"FLAECHE":"667 m²","OEFF_ZEITEN":"0:00-24:00","SPIELEN_IM_PARK":"Ja","WASSER_IM_PARK":"Nein","HUNDE_IM_PARK":"Nein","TELEFON":"01 4000 8042","WEBLINK1":"http://www.wien.gv.at/umwelt/parks/anlagen/index.html","SE_ANNO_CAD_DATA":null}},{"type":"Feature","id":"PARKINFOOGD.2008309","geometry":{"type":"Point","coordinates":[16.33320626,48.18936501]},"geometry_name":"SHAPE","properties":{"OBJECTID":2008309,"ANL_NAME":"PA Kranzgasse","BEZIRK":15,"FLAECHE":"691 m²","OEFF_ZEITEN":null,"SPIELEN_IM_PARK":"Nein","WASSER_IM_PARK":"Ja","HUNDE_IM_PARK":"Nein","TELEFON":"01 4000 8042","WEBLINK1":"http://www.wien.gv.at/umwelt/parks/anlagen/index.html","SE_ANNO_CAD_DATA":null}},{"type":"Feature","id":"PARKINFOOGD.2008310","geometry":{"type":"Point","coordinates":[16.33372893,48.18648602]},"geometry_name":"SHAPE","properties":{"OBJECTID":2008310,"ANL_NAME":"Ignaz-Kuranda-Park","BEZIRK":15,"FLAECHE":"2.428 m²","OEFF_ZEITEN":"0:00-24:00","SPIELEN_IM_PARK":"Ja","WASSER_IM_PARK":"Ja","HUNDE_IM_PARK":"Nein","TELEFON":"01 4000 8042","WEBLINK1":"http://www.wien.gv.at/umwelt/parks/anlagen/index.html","SE_ANNO_CAD_DATA":null}},{"type":"Feature","id":"PARKINFOOGD.2008311","geometry":{"type":"Point","coordinates":[16.32814988,48.1877487]},"geometry_name":"SHAPE","properties":{"OBJECTID":2008311,"ANL_NAME":"PA Grimmgasse","BEZIRK":15,"FLAECHE":"379 m²","OEFF_ZEITEN":"Nov-März: 7:00-20:00, Apr-Okt: 7:00-21:00","SPIELEN_IM_PARK":"Nein","WASSER_IM_PARK":"Nein","HUNDE_IM_PARK":"Nein","TELEFON":"01 4000 8042","WEBLINK1":"http://www.wien.gv.at/umwelt/parks/anlagen/index.html","SE_ANNO_CAD_DATA":null}},{"type":"Feature","id":"PARKINFOOGD.2008342","geometry":{"type":"Point","coordinates":[16.31870603,48.24597422]},"geometry_name":"SHAPE","properties":{"OBJECTID":2008342,"ANL_NAME":"PA Kliergasse","BEZIRK":19,"FLAECHE":"7.817 m²","OEFF_ZEITEN":"0:00-24:00","SPIELEN_IM_PARK":"Ja","WASSER_IM_PARK":"Ja","HUNDE_IM_PARK":"Nein","TELEFON":"01 4000 8042","WEBLINK1":"http://www.wien.gv.at/umwelt/parks/anlagen/index.html","SE_ANNO_CAD_DATA":null}},{"type":"Feature","id":"PARKINFOOGD.2008343","geometry":{"type":"Point","coordinates":[16.33691036,48.27566749]},"geometry_name":"SHAPE","properties":{"OBJECTID":2008343,"ANL_NAME":"PA Am Kahlenberg","BEZIRK":19,"FLAECHE":"1.243 m²","OEFF_ZEITEN":"0:00-24:00","SPIELEN_IM_PARK":"Nein","WASSER_IM_PARK":"Nein","HUNDE_IM_PARK":"Nein","TELEFON":"01 4000 8042","WEBLINK1":"http://www.wien.gv.at/umwelt/parks/anlagen/index.html","SE_ANNO_CAD_DATA":null}},{"type":"Feature","id":"PARKINFOOGD.2008344","geometry":{"type":"Point","coordinates":[16.35833403,48.25190478]},"geometry_name":"SHAPE","properties":{"OBJECTID":2008344,"ANL_NAME":"Rothschildgarten","BEZIRK":19,"FLAECHE":"28.415 m²","OEFF_ZEITEN":"0:00-24:00","SPIELEN_IM_PARK":"Ja","WASSER_IM_PARK":"Ja","HUNDE_IM_PARK":"Nein","TELEFON":"01 4000 8042","WEBLINK1":"http://www.wien.gv.at/umwelt/parks/anlagen/index.html","SE_ANNO_CAD_DATA":null}},{"type":"Feature","id":"PARKINFOOGD.2008345","geometry":{"type":"Point","coordinates":[16.33962081,48.25701597]},"geometry_name":"SHAPE","properties":{"OBJECTID":2008345,"ANL_NAME":"Franz-Hengl-Park","BEZIRK":19,"FLAECHE":"306 m²","OEFF_ZEITEN":"0:00-24:00","SPIELEN_IM_PARK":"Nein","WASSER_IM_PARK":"Ja","HUNDE_IM_PARK":"Nein","TELEFON":"01 4000 8042","WEBLINK1":"http://www.wien.gv.at/umwelt/parks/anlagen/index.html","SE_ANNO_CAD_DATA":null}},{"type":"Feature","id":"PARKINFOOGD.2008312","geometry":{"type":"Point","coordinates":[16.33543415,48.19216749]},"geometry_name":"SHAPE","properties":{"OBJECTID":2008312,"ANL_NAME":"PA Moshe-Jahoda-Platz","BEZIRK":15,"FLAECHE":"533 m²","OEFF_ZEITEN":"0:00-24:00","SPIELEN_IM_PARK":"Nein","WASSER_IM_PARK":"Nein","HUNDE_IM_PARK":"Nein","TELEFON":"01 4000 8042","WEBLINK1":"http://www.wien.gv.at/umwelt/parks/anlagen/index.html","SE_ANNO_CAD_DATA":null}},{"type":"Feature","id":"PARKINFOOGD.2008313","geometry":{"type":"Point","coordinates":[16.32650512,48.19255352]},"geometry_name":"SHAPE","properties":{"OBJECTID":2008313,"ANL_NAME":"PA Avedikstraße","BEZIRK":15,"FLAECHE":"1.691 m²","OEFF_ZEITEN":"0:00-24:00","SPIELEN_IM_PARK":"Ja","WASSER_IM_PARK":"Nein","HUNDE_IM_PARK":"Nein","TELEFON":"01 4000 8042","WEBLINK1":"http://www.wien.gv.at/umwelt/parks/anlagen/index.html","SE_ANNO_CAD_DATA":null}},{"type":"Feature","id":"PARKINFOOGD.2008314","geometry":{"type":"Point","coordinates":[16.2818927,48.20670268]},"geometry_name":"SHAPE","properties":{"OBJECTID":2008314,"ANL_NAME":"Elfriede-Stumpf-Park","BEZIRK":14,"FLAECHE":"54.192 m²","OEFF_ZEITEN":"0:00-24:00","SPIELEN_IM_PARK":"Ja","WASSER_IM_PARK":"Ja","HUNDE_IM_PARK":"Nein","TELEFON":"01 4000 8042","WEBLINK1":"http://www.wien.gv.at/umwelt/parks/anlagen/index.html","SE_ANNO_CAD_DATA":null}},{"type":"Feature","id":"PARKINFOOGD.2008315","geometry":{"type":"Point","coordinates":[16.28839843,48.20621079]},"geometry_name":"SHAPE","properties":{"OBJECTID":2008315,"ANL_NAME":"PA Flötzersteig","BEZIRK":14,"FLAECHE":"1.128 m²","OEFF_ZEITEN":"0:00-24:00","SPIELEN_IM_PARK":"Nein","WASSER_IM_PARK":"Nein","HUNDE_IM_PARK":"Nein","TELEFON":"01 4000 8042","WEBLINK1":"http://www.wien.gv.at/umwelt/parks/anlagen/index.html","SE_ANNO_CAD_DATA":null}},{"type":"Feature","id":"PARKINFOOGD.2008316","geometry":{"type":"Point","coordinates":[16.24612753,48.21994417]},"geometry_name":"SHAPE","properties":{"OBJECTID":2008316,"ANL_NAME":"PA Ochsenkopfweg","BEZIRK":14,"FLAECHE":"3.678 m²","OEFF_ZEITEN":"0:00-24:00","SPIELEN_IM_PARK":"Nein","WASSER_IM_PARK":"Nein","HUNDE_IM_PARK":"Nein","TELEFON":"01 4000 8042","WEBLINK1":"http://www.wien.gv.at/umwelt/parks/anlagen/index.html","SE_ANNO_CAD_DATA":null}},{"type":"Feature","id":"PARKINFOOGD.2008317","geometry":{"type":"Point","coordinates":[16.21234152,48.20795032]},"geometry_name":"SHAPE","properties":{"OBJECTID":2008317,"ANL_NAME":"PA Mühlbergstraße","BEZIRK":14,"FLAECHE":"1.079 m²","OEFF_ZEITEN":"0:00-24:00","SPIELEN_IM_PARK":"Ja","WASSER_IM_PARK":"Nein","HUNDE_IM_PARK":"Nein","TELEFON":"01 4000 8042","WEBLINK1":"http://www.wien.gv.at/umwelt/parks/anlagen/index.html","SE_ANNO_CAD_DATA":null}},{"type":"Feature","id":"PARKINFOOGD.2008318","geometry":{"type":"Point","coordinates":[16.29442702,48.13322538]},"geometry_name":"SHAPE","properties":{"OBJECTID":2008318,"ANL_NAME":"PA Siebenhirtenstraße","BEZIRK":23,"FLAECHE":"4.750 m²","OEFF_ZEITEN":"0:00-24:00","SPIELEN_IM_PARK":"Nein","WASSER_IM_PARK":"Nein","HUNDE_IM_PARK":"Nein","TELEFON":"01 4000 8042","WEBLINK1":"http://www.wien.gv.at/umwelt/parks/anlagen/index.html","SE_ANNO_CAD_DATA":null}},{"type":"Feature","id":"PARKINFOOGD.2008319","geometry":{"type":"Point","coordinates":[16.25554005,48.20886964]},"geometry_name":"SHAPE","properties":{"OBJECTID":2008319,"ANL_NAME":"PA Hüttelbergstraße","BEZIRK":14,"FLAECHE":"2.048 m²","OEFF_ZEITEN":"0:00-24:00","SPIELEN_IM_PARK":"Ja","WASSER_IM_PARK":"Nein","HUNDE_IM_PARK":"Nein","TELEFON":"01 4000 8042","WEBLINK1":"http://www.wien.gv.at/umwelt/parks/anlagen/index.html","SE_ANNO_CAD_DATA":null}},{"type":"Feature","id":"PARKINFOOGD.2008320","geometry":{"type":"Point","coordinates":[16.41127324,48.29983401]},"geometry_name":"SHAPE","properties":{"OBJECTID":2008320,"ANL_NAME":"PA Luckenschwemmgasse","BEZIRK":21,"FLAECHE":"1.898 m²","OEFF_ZEITEN":"0:00-24:00","SPIELEN_IM_PARK":"Ja","WASSER_IM_PARK":"Ja","HUNDE_IM_PARK":"Nein","TELEFON":"01 4000 8042","WEBLINK1":"http://www.wien.gv.at/umwelt/parks/anlagen/index.html","SE_ANNO_CAD_DATA":null}},{"type":"Feature","id":"PARKINFOOGD.2008321","geometry":{"type":"Point","coordinates":[16.44771838,48.26673071]},"geometry_name":"SHAPE","properties":{"OBJECTID":2008321,"ANL_NAME":"PA Julius-Ficker-Straße","BEZIRK":21,"FLAECHE":"1.254 m²","OEFF_ZEITEN":"0:00-24:00","SPIELEN_IM_PARK":"Nein","WASSER_IM_PARK":"Nein","HUNDE_IM_PARK":"Nein","TELEFON":"01 4000 8042","WEBLINK1":"http://www.wien.gv.at/umwelt/parks/anlagen/index.html","SE_ANNO_CAD_DATA":null}},{"type":"Feature","id":"PARKINFOOGD.2008322","geometry":{"type":"Point","coordinates":[16.44849525,48.27217343]},"geometry_name":"SHAPE","properties":{"OBJECTID":2008322,"ANL_NAME":"PA Gitlbauergasse","BEZIRK":21,"FLAECHE":"20.260 m²","OEFF_ZEITEN":"0:00-24:00","SPIELEN_IM_PARK":"Ja","WASSER_IM_PARK":"Ja","HUNDE_IM_PARK":"Nein","TELEFON":"01 4000 8042","WEBLINK1":"http://www.wien.gv.at/umwelt/parks/anlagen/index.html","SE_ANNO_CAD_DATA":null}},{"type":"Feature","id":"PARKINFOOGD.2008323","geometry":{"type":"Point","coordinates":[16.44858511,48.26919316]},"geometry_name":"SHAPE","properties":{"OBJECTID":2008323,"ANL_NAME":"Hedwig-und-Johann-Schneider-Park","BEZIRK":21,"FLAECHE":"15.946 m²","OEFF_ZEITEN":"0:00-24:00","SPIELEN_IM_PARK":"Ja","WASSER_IM_PARK":"Ja","HUNDE_IM_PARK":"Nein","TELEFON":"01 4000 8042","WEBLINK1":"http://www.wien.gv.at/umwelt/parks/anlagen/index.html","SE_ANNO_CAD_DATA":null}},{"type":"Feature","id":"PARKINFOOGD.2008324","geometry":{"type":"Point","coordinates":[16.41182609,48.29931416]},"geometry_name":"SHAPE","properties":{"OBJECTID":2008324,"ANL_NAME":"PA Josef-Flandorfer-Straße","BEZIRK":21,"FLAECHE":"801 m²","OEFF_ZEITEN":"0:00-24:00","SPIELEN_IM_PARK":"Nein","WASSER_IM_PARK":"Nein","HUNDE_IM_PARK":"Nein","TELEFON":"01 4000 8042","WEBLINK1":"http://www.wien.gv.at/umwelt/parks/anlagen/index.html","SE_ANNO_CAD_DATA":null}},{"type":"Feature","id":"PARKINFOOGD.2008325","geometry":{"type":"Point","coordinates":[16.41197697,48.2047212]},"geometry_name":"SHAPE","properties":{"OBJECTID":2008325,"ANL_NAME":"Prater - Rustenschacher","BEZIRK":2,"FLAECHE":"189.820 m²","OEFF_ZEITEN":"0:00-24:00","SPIELEN_IM_PARK":"Nein","WASSER_IM_PARK":"Ja","HUNDE_IM_PARK":"Ja","TELEFON":"01 4000 8042","WEBLINK1":"http://www.wien.gv.at/umwelt/parks/anlagen/index.html","SE_ANNO_CAD_DATA":null}},{"type":"Feature","id":"PARKINFOOGD.2008326","geometry":{"type":"Point","coordinates":[16.4216532,48.25448184]},"geometry_name":"SHAPE","properties":{"OBJECTID":2008326,"ANL_NAME":"PA Carminweg","BEZIRK":21,"FLAECHE":"586 m²","OEFF_ZEITEN":"0:00-24:00","SPIELEN_IM_PARK":"Ja","WASSER_IM_PARK":"Ja","HUNDE_IM_PARK":"Nein","TELEFON":"01 4000 8042","WEBLINK1":"http://www.wien.gv.at/umwelt/parks/anlagen/index.html","SE_ANNO_CAD_DATA":null}},{"type":"Feature","id":"PARKINFOOGD.2008327","geometry":{"type":"Point","coordinates":[16.45058439,48.27043251]},"geometry_name":"SHAPE","properties":{"OBJECTID":2008327,"ANL_NAME":"PA Bubergasse","BEZIRK":21,"FLAECHE":"3.534 m²","OEFF_ZEITEN":"0:00-24:00","SPIELEN_IM_PARK":"Nein","WASSER_IM_PARK":"Ja","HUNDE_IM_PARK":"Nein","TELEFON":"01 4000 8042","WEBLINK1":"http://www.wien.gv.at/umwelt/parks/anlagen/index.html","SE_ANNO_CAD_DATA":null}},{"type":"Feature","id":"PARKINFOOGD.2008328","geometry":{"type":"Point","coordinates":[16.42089207,48.25706621]},"geometry_name":"SHAPE","properties":{"OBJECTID":2008328,"ANL_NAME":"PA Töllergasse","BEZIRK":21,"FLAECHE":"2.627 m²","OEFF_ZEITEN":"0:00-24:00","SPIELEN_IM_PARK":"Nein","WASSER_IM_PARK":"Nein","HUNDE_IM_PARK":"Nein","TELEFON":"01 4000 8042","WEBLINK1":"http://www.wien.gv.at/umwelt/parks/anlagen/index.html","SE_ANNO_CAD_DATA":null}},{"type":"Feature","id":"PARKINFOOGD.2008329","geometry":{"type":"Point","coordinates":[16.41505785,48.25286845]},"geometry_name":"SHAPE","properties":{"OBJECTID":2008329,"ANL_NAME":"PA Donaufelder Straße","BEZIRK":21,"FLAECHE":"2.516 m²","OEFF_ZEITEN":"0:00-24:00","SPIELEN_IM_PARK":"Ja","WASSER_IM_PARK":"Ja","HUNDE_IM_PARK":"Nein","TELEFON":"01 4000 8042","WEBLINK1":"http://www.wien.gv.at/umwelt/parks/anlagen/index.html","SE_ANNO_CAD_DATA":null}},{"type":"Feature","id":"PARKINFOOGD.2008330","geometry":{"type":"Point","coordinates":[16.45432162,48.27450882]},"geometry_name":"SHAPE","properties":{"OBJECTID":2008330,"ANL_NAME":"PA Adolf-Loos-Gasse","BEZIRK":21,"FLAECHE":"5.066 m²","OEFF_ZEITEN":"0:00-24:00","SPIELEN_IM_PARK":"Nein","WASSER_IM_PARK":"Nein","HUNDE_IM_PARK":"Nein","TELEFON":"01 4000 8042","WEBLINK1":"http://www.wien.gv.at/umwelt/parks/anlagen/index.html","SE_ANNO_CAD_DATA":null}},{"type":"Feature","id":"PARKINFOOGD.2008331","geometry":{"type":"Point","coordinates":[16.38054489,48.23905666]},"geometry_name":"SHAPE","properties":{"OBJECTID":2008331,"ANL_NAME":"PA Winarskystraße","BEZIRK":20,"FLAECHE":"649 m²","OEFF_ZEITEN":"0:00-24:00","SPIELEN_IM_PARK":"Nein","WASSER_IM_PARK":"Nein","HUNDE_IM_PARK":"Nein","TELEFON":"01 4000 8042","WEBLINK1":"http://www.wien.gv.at/umwelt/parks/anlagen/index.html","SE_ANNO_CAD_DATA":null}},{"type":"Feature","id":"PARKINFOOGD.2008332","geometry":{"type":"Point","coordinates":[16.37979132,48.2386704]},"geometry_name":"SHAPE","properties":{"OBJECTID":2008332,"ANL_NAME":"PA Meldemannstraße","BEZIRK":20,"FLAECHE":"1.026 m²","OEFF_ZEITEN":"0:00-24:00","SPIELEN_IM_PARK":"Nein","WASSER_IM_PARK":"Nein","HUNDE_IM_PARK":"Nein","TELEFON":"01 4000 8042","WEBLINK1":"http://www.wien.gv.at/umwelt/parks/anlagen/index.html","SE_ANNO_CAD_DATA":null}},{"type":"Feature","id":"PARKINFOOGD.2008333","geometry":{"type":"Point","coordinates":[16.37788909,48.23770513]},"geometry_name":"SHAPE","properties":{"OBJECTID":2008333,"ANL_NAME":"PA Dresdner Straße","BEZIRK":20,"FLAECHE":"1.299 m²","OEFF_ZEITEN":"0:00-24:00","SPIELEN_IM_PARK":"Nein","WASSER_IM_PARK":"Nein","HUNDE_IM_PARK":"Nein","TELEFON":"01 4000 8042","WEBLINK1":"http://www.wien.gv.at/umwelt/parks/anlagen/index.html","SE_ANNO_CAD_DATA":null}},{"type":"Feature","id":"PARKINFOOGD.2008334","geometry":{"type":"Point","coordinates":[16.38275009,48.23915828]},"geometry_name":"SHAPE","properties":{"OBJECTID":2008334,"ANL_NAME":"PA Vorgartenstraße","BEZIRK":20,"FLAECHE":"6.059 m²","OEFF_ZEITEN":"0:00-24:00","SPIELEN_IM_PARK":"Nein","WASSER_IM_PARK":"Nein","HUNDE_IM_PARK":"Nein","TELEFON":"01 4000 8042","WEBLINK1":"http://www.wien.gv.at/umwelt/parks/anlagen/index.html","SE_ANNO_CAD_DATA":null}},{"type":"Feature","id":"PARKINFOOGD.2008335","geometry":{"type":"Point","coordinates":[16.37525684,48.23745966]},"geometry_name":"SHAPE","properties":{"OBJECTID":2008335,"ANL_NAME":"PA Ungerbau","BEZIRK":20,"FLAECHE":"2.145 m²","OEFF_ZEITEN":"0:00-24:00","SPIELEN_IM_PARK":"Nein","WASSER_IM_PARK":"Nein","HUNDE_IM_PARK":"Nein","TELEFON":"01 4000 8042","WEBLINK1":"http://www.wien.gv.at/umwelt/parks/anlagen/index.html","SE_ANNO_CAD_DATA":null}},{"type":"Feature","id":"PARKINFOOGD.2008336","geometry":{"type":"Point","coordinates":[16.37782278,48.24906542]},"geometry_name":"SHAPE","properties":{"OBJECTID":2008336,"ANL_NAME":"Schmetterlingspark","BEZIRK":20,"FLAECHE":"5.891 m²","OEFF_ZEITEN":"0:00-24:00","SPIELEN_IM_PARK":"Ja","WASSER_IM_PARK":"Ja","HUNDE_IM_PARK":"Nein","TELEFON":"01 4000 8042","WEBLINK1":"http://www.wien.gv.at/umwelt/parks/anlagen/index.html","SE_ANNO_CAD_DATA":null}},{"type":"Feature","id":"PARKINFOOGD.2008337","geometry":{"type":"Point","coordinates":[16.34119707,48.25337084]},"geometry_name":"SHAPE","properties":{"OBJECTID":2008337,"ANL_NAME":"Wilfanpark","BEZIRK":19,"FLAECHE":"3.673 m²","OEFF_ZEITEN":"0:00-24:00","SPIELEN_IM_PARK":"Ja","WASSER_IM_PARK":"Ja","HUNDE_IM_PARK":"Nein","TELEFON":"01 4000 8042","WEBLINK1":"http://www.wien.gv.at/umwelt/parks/anlagen/index.html","SE_ANNO_CAD_DATA":null}},{"type":"Feature","id":"PARKINFOOGD.2008338","geometry":{"type":"Point","coordinates":[16.32120976,48.25210687]},"geometry_name":"SHAPE","properties":{"OBJECTID":2008338,"ANL_NAME":"Puchweinpark","BEZIRK":19,"FLAECHE":"3.125 m²","OEFF_ZEITEN":"0:00-24:00","SPIELEN_IM_PARK":"Nein","WASSER_IM_PARK":"Nein","HUNDE_IM_PARK":"Nein","TELEFON":"01 4000 8042","WEBLINK1":"http://www.wien.gv.at/umwelt/parks/anlagen/index.html","SE_ANNO_CAD_DATA":null}},{"type":"Feature","id":"PARKINFOOGD.2008339","geometry":{"type":"Point","coordinates":[16.33770216,48.25830225]},"geometry_name":"SHAPE","properties":{"OBJECTID":2008339,"ANL_NAME":"PA Peter-Alexander-Platz","BEZIRK":19,"FLAECHE":"1.041 m²","OEFF_ZEITEN":"0:00-24:00","SPIELEN_IM_PARK":"Nein","WASSER_IM_PARK":"Ja","HUNDE_IM_PARK":"Nein","TELEFON":"01 4000 8042","WEBLINK1":"http://www.wien.gv.at/umwelt/parks/anlagen/index.html","SE_ANNO_CAD_DATA":null}},{"type":"Feature","id":"PARKINFOOGD.2008340","geometry":{"type":"Point","coordinates":[16.3222221,48.24322247]},"geometry_name":"SHAPE","properties":{"OBJECTID":2008340,"ANL_NAME":"PA Silvaraweg","BEZIRK":19,"FLAECHE":"1.446 m²","OEFF_ZEITEN":"0:00-24:00","SPIELEN_IM_PARK":"Nein","WASSER_IM_PARK":"Nein","HUNDE_IM_PARK":"Nein","TELEFON":"01 4000 8042","WEBLINK1":"http://www.wien.gv.at/umwelt/parks/anlagen/index.html","SE_ANNO_CAD_DATA":null}},{"type":"Feature","id":"PARKINFOOGD.2008341","geometry":{"type":"Point","coordinates":[16.3217234,48.24300323]},"geometry_name":"SHAPE","properties":{"OBJECTID":2008341,"ANL_NAME":"PA Felix-Dahn-Straße","BEZIRK":19,"FLAECHE":"421 m²","OEFF_ZEITEN":"0:00-24:00","SPIELEN_IM_PARK":"Nein","WASSER_IM_PARK":"Nein","HUNDE_IM_PARK":"Nein","TELEFON":"01 4000 8042","WEBLINK1":"http://www.wien.gv.at/umwelt/parks/anlagen/index.html","SE_ANNO_CAD_DATA":null}},{"type":"Feature","id":"PARKINFOOGD.2008346","geometry":{"type":"Point","coordinates":[16.31785687,48.2432561]},"geometry_name":"SHAPE","properties":{"OBJECTID":2008346,"ANL_NAME":"Pisecpark","BEZIRK":19,"FLAECHE":"1.807 m²","OEFF_ZEITEN":"0:00-24:00","SPIELEN_IM_PARK":"Nein","WASSER_IM_PARK":"Nein","HUNDE_IM_PARK":"Nein","TELEFON":"01 4000 8042","WEBLINK1":"http://www.wien.gv.at/umwelt/parks/anlagen/index.html","SE_ANNO_CAD_DATA":null}},{"type":"Feature","id":"PARKINFOOGD.2008347","geometry":{"type":"Point","coordinates":[16.47697403,48.21400984]},"geometry_name":"SHAPE","properties":{"OBJECTID":2008347,"ANL_NAME":"PA Asperner Wies'n","BEZIRK":22,"FLAECHE":"10.470 m²","OEFF_ZEITEN":"0:00-24:00","SPIELEN_IM_PARK":"Ja","WASSER_IM_PARK":"Ja","HUNDE_IM_PARK":"Nein","TELEFON":"01 4000 8042","WEBLINK1":"http://www.wien.gv.at/umwelt/parks/anlagen/index.html","SE_ANNO_CAD_DATA":null}},{"type":"Feature","id":"PARKINFOOGD.2008348","geometry":{"type":"Point","coordinates":[16.43359872,48.25457766]},"geometry_name":"SHAPE","properties":{"OBJECTID":2008348,"ANL_NAME":"Gusti-Wolf-Park","BEZIRK":22,"FLAECHE":"3.986 m²","OEFF_ZEITEN":"0:00-24:00","SPIELEN_IM_PARK":"Ja","WASSER_IM_PARK":"Ja","HUNDE_IM_PARK":"Nein","TELEFON":"01 4000 8042","WEBLINK1":"http://www.wien.gv.at/umwelt/parks/anlagen/index.html","SE_ANNO_CAD_DATA":null}},{"type":"Feature","id":"PARKINFOOGD.2008349","geometry":{"type":"Point","coordinates":[16.47572051,48.21429877]},"geometry_name":"SHAPE","properties":{"OBJECTID":2008349,"ANL_NAME":"Trygve-Lie-Park","BEZIRK":22,"FLAECHE":"3.881 m²","OEFF_ZEITEN":"0:00-24:00","SPIELEN_IM_PARK":"Ja","WASSER_IM_PARK":"Ja","HUNDE_IM_PARK":"Nein","TELEFON":"01 4000 8042","WEBLINK1":"http://www.wien.gv.at/umwelt/parks/anlagen/index.html","SE_ANNO_CAD_DATA":null}},{"type":"Feature","id":"PARKINFOOGD.2008350","geometry":{"type":"Point","coordinates":[16.43623265,48.24634406]},"geometry_name":"SHAPE","properties":{"OBJECTID":2008350,"ANL_NAME":"PA Steigenteschgasse","BEZIRK":22,"FLAECHE":"3.727 m²","OEFF_ZEITEN":"0:00-24:00","SPIELEN_IM_PARK":"Nein","WASSER_IM_PARK":"Nein","HUNDE_IM_PARK":"Nein","TELEFON":"01 4000 8042","WEBLINK1":"http://www.wien.gv.at/umwelt/parks/anlagen/index.html","SE_ANNO_CAD_DATA":null}},{"type":"Feature","id":"PARKINFOOGD.2008351","geometry":{"type":"Point","coordinates":[16.42404572,48.22599105]},"geometry_name":"SHAPE","properties":{"OBJECTID":2008351,"ANL_NAME":"PA Schüttauplatz","BEZIRK":22,"FLAECHE":"8.926 m²","OEFF_ZEITEN":"0:00-24:00","SPIELEN_IM_PARK":"Ja","WASSER_IM_PARK":"Ja","HUNDE_IM_PARK":"Nein","TELEFON":"01 4000 8042","WEBLINK1":"http://www.wien.gv.at/umwelt/parks/anlagen/index.html","SE_ANNO_CAD_DATA":null}},{"type":"Feature","id":"PARKINFOOGD.2008352","geometry":{"type":"Point","coordinates":[16.44006587,48.23247411]},"geometry_name":"SHAPE","properties":{"OBJECTID":2008352,"ANL_NAME":"PA Godlewskigasse","BEZIRK":22,"FLAECHE":"4.900 m²","OEFF_ZEITEN":"0:00-24:00","SPIELEN_IM_PARK":"Nein","WASSER_IM_PARK":"Nein","HUNDE_IM_PARK":"Nein","TELEFON":"01 4000 8042","WEBLINK1":"http://www.wien.gv.at/umwelt/parks/anlagen/index.html","SE_ANNO_CAD_DATA":null}},{"type":"Feature","id":"PARKINFOOGD.2008353","geometry":{"type":"Point","coordinates":[16.43626341,48.23097879]},"geometry_name":"SHAPE","properties":{"OBJECTID":2008353,"ANL_NAME":"Lagerwiese Rehlacke","BEZIRK":22,"FLAECHE":"41.305 m²","OEFF_ZEITEN":"0:00-24:00","SPIELEN_IM_PARK":"Ja","WASSER_IM_PARK":"Ja","HUNDE_IM_PARK":"Nein","TELEFON":"01 4000 8042","WEBLINK1":"http://www.wien.gv.at/umwelt/parks/anlagen/index.html","SE_ANNO_CAD_DATA":null}},{"type":"Feature","id":"PARKINFOOGD.2008354","geometry":{"type":"Point","coordinates":[16.48084232,48.23736888]},"geometry_name":"SHAPE","properties":{"OBJECTID":2008354,"ANL_NAME":"PA Quadenstraße","BEZIRK":22,"FLAECHE":"2.214 m²","OEFF_ZEITEN":"0:00-24:00","SPIELEN_IM_PARK":"Ja","WASSER_IM_PARK":"Nein","HUNDE_IM_PARK":"Nein","TELEFON":"01 4000 8042","WEBLINK1":"http://www.wien.gv.at/umwelt/parks/anlagen/index.html","SE_ANNO_CAD_DATA":null}},{"type":"Feature","id":"PARKINFOOGD.2008355","geometry":{"type":"Point","coordinates":[16.48030213,48.21710743]},"geometry_name":"SHAPE","properties":{"OBJECTID":2008355,"ANL_NAME":"PA Friedhof Aspern","BEZIRK":22,"FLAECHE":"3.645 m²","OEFF_ZEITEN":"0:00-24:00","SPIELEN_IM_PARK":"Nein","WASSER_IM_PARK":"Nein","HUNDE_IM_PARK":"Nein","TELEFON":"01 4000 8042","WEBLINK1":"http://www.wien.gv.at/umwelt/parks/anlagen/index.html","SE_ANNO_CAD_DATA":null}},{"type":"Feature","id":"PARKINFOOGD.2008356","geometry":{"type":"Point","coordinates":[16.43854942,48.24710195]},"geometry_name":"SHAPE","properties":{"OBJECTID":2008356,"ANL_NAME":"PA Meißnergasse","BEZIRK":22,"FLAECHE":"6.903 m²","OEFF_ZEITEN":"0:00-24:00","SPIELEN_IM_PARK":"Ja","WASSER_IM_PARK":"Ja","HUNDE_IM_PARK":"Nein","TELEFON":"01 4000 8042","WEBLINK1":"http://www.wien.gv.at/umwelt/parks/anlagen/index.html","SE_ANNO_CAD_DATA":null}},{"type":"Feature","id":"PARKINFOOGD.2008357","geometry":{"type":"Point","coordinates":[16.44405699,48.23388206]},"geometry_name":"SHAPE","properties":{"OBJECTID":2008357,"ANL_NAME":"PA Edmund-Weber-Weg","BEZIRK":22,"FLAECHE":"1.043 m²","OEFF_ZEITEN":"0:00-24:00","SPIELEN_IM_PARK":"Nein","WASSER_IM_PARK":"Nein","HUNDE_IM_PARK":"Nein","TELEFON":"01 4000 8042","WEBLINK1":"http://www.wien.gv.at/umwelt/parks/anlagen/index.html","SE_ANNO_CAD_DATA":null}},{"type":"Feature","id":"PARKINFOOGD.2008358","geometry":{"type":"Point","coordinates":[16.43828976,48.23861532]},"geometry_name":"SHAPE","properties":{"OBJECTID":2008358,"ANL_NAME":"PA Donaustadtstraße","BEZIRK":22,"FLAECHE":"1.798 m²","OEFF_ZEITEN":"0:00-24:00","SPIELEN_IM_PARK":"Nein","WASSER_IM_PARK":"Nein","HUNDE_IM_PARK":"Ja","TELEFON":"01 4000 8042","WEBLINK1":"http://www.wien.gv.at/umwelt/parks/anlagen/index.html","SE_ANNO_CAD_DATA":null}},{"type":"Feature","id":"PARKINFOOGD.2008359","geometry":{"type":"Point","coordinates":[16.41206246,48.23997947]},"geometry_name":"SHAPE","properties":{"OBJECTID":2008359,"ANL_NAME":"Donaupark","BEZIRK":22,"FLAECHE":"633.337 m²","OEFF_ZEITEN":"0:00-24:00","SPIELEN_IM_PARK":"Ja","WASSER_IM_PARK":"Ja","HUNDE_IM_PARK":"Nein","TELEFON":"01 4000 8042","WEBLINK1":"http://www.wien.gv.at/umwelt/parks/anlagen/index.html","SE_ANNO_CAD_DATA":null}},{"type":"Feature","id":"PARKINFOOGD.2008360","geometry":{"type":"Point","coordinates":[16.45209859,48.23068737]},"geometry_name":"SHAPE","properties":{"OBJECTID":2008360,"ANL_NAME":"PA Erzherzog-Karl-Straße","BEZIRK":22,"FLAECHE":"14.813 m²","OEFF_ZEITEN":"0:00-24:00","SPIELEN_IM_PARK":"Nein","WASSER_IM_PARK":"Nein","HUNDE_IM_PARK":"Nein","TELEFON":"01 4000 8042","WEBLINK1":"http://www.wien.gv.at/umwelt/parks/anlagen/index.html","SE_ANNO_CAD_DATA":null}},{"type":"Feature","id":"PARKINFOOGD.2008361","geometry":{"type":"Point","coordinates":[16.41313198,48.27502489]},"geometry_name":"SHAPE","properties":{"OBJECTID":2008361,"ANL_NAME":"PA Wankläckergasse","BEZIRK":21,"FLAECHE":"5.180 m²","OEFF_ZEITEN":"0:00-24:00","SPIELEN_IM_PARK":"Ja","WASSER_IM_PARK":"Ja","HUNDE_IM_PARK":"Nein","TELEFON":"01 4000 8042","WEBLINK1":"http://www.wien.gv.at/umwelt/parks/anlagen/index.html","SE_ANNO_CAD_DATA":null}},{"type":"Feature","id":"PARKINFOOGD.2008362","geometry":{"type":"Point","coordinates":[16.43518177,48.26415304]},"geometry_name":"SHAPE","properties":{"OBJECTID":2008362,"ANL_NAME":"Schweiglpark","BEZIRK":21,"FLAECHE":"1.677 m²","OEFF_ZEITEN":"0:00-24:00","SPIELEN_IM_PARK":"Nein","WASSER_IM_PARK":"Nein","HUNDE_IM_PARK":"Nein","TELEFON":"01 4000 8042","WEBLINK1":"http://www.wien.gv.at/umwelt/parks/anlagen/index.html","SE_ANNO_CAD_DATA":null}},{"type":"Feature","id":"PARKINFOOGD.2008363","geometry":{"type":"Point","coordinates":[16.39180569,48.26087525]},"geometry_name":"SHAPE","properties":{"OBJECTID":2008363,"ANL_NAME":"PA Tetmajergasse","BEZIRK":21,"FLAECHE":"12.233 m²","OEFF_ZEITEN":"0:00-24:00","SPIELEN_IM_PARK":"Ja","WASSER_IM_PARK":"Ja","HUNDE_IM_PARK":"Nein","TELEFON":"01 4000 8042","WEBLINK1":"http://www.wien.gv.at/umwelt/parks/anlagen/index.html","SE_ANNO_CAD_DATA":null}},{"type":"Feature","id":"PARKINFOOGD.2008364","geometry":{"type":"Point","coordinates":[16.40580134,48.28133267]},"geometry_name":"SHAPE","properties":{"OBJECTID":2008364,"ANL_NAME":"PA Strebersdorfer Straße","BEZIRK":21,"FLAECHE":"987 m²","OEFF_ZEITEN":"0:00-24:00","SPIELEN_IM_PARK":"Nein","WASSER_IM_PARK":"Nein","HUNDE_IM_PARK":"Nein","TELEFON":"01 4000 8042","WEBLINK1":"http://www.wien.gv.at/umwelt/parks/anlagen/index.html","SE_ANNO_CAD_DATA":null}},{"type":"Feature","id":"PARKINFOOGD.2008365","geometry":{"type":"Point","coordinates":[16.29213867,48.14807738]},"geometry_name":"SHAPE","properties":{"OBJECTID":2008365,"ANL_NAME":"Bruno-Morpurgo-Park","BEZIRK":23,"FLAECHE":"8.041 m²","OEFF_ZEITEN":"0:00-24:00","SPIELEN_IM_PARK":"Ja","WASSER_IM_PARK":"Ja","HUNDE_IM_PARK":"Nein","TELEFON":"01 4000 8042","WEBLINK1":"http://www.wien.gv.at/umwelt/parks/anlagen/index.html","SE_ANNO_CAD_DATA":null}},{"type":"Feature","id":"PARKINFOOGD.2008366","geometry":{"type":"Point","coordinates":[16.410126,48.3018715]},"geometry_name":"SHAPE","properties":{"OBJECTID":2008366,"ANL_NAME":"PA Stammersdorfer Straße","BEZIRK":21,"FLAECHE":"1.289 m²","OEFF_ZEITEN":"0:00-24:00","SPIELEN_IM_PARK":"Nein","WASSER_IM_PARK":"Nein","HUNDE_IM_PARK":"Nein","TELEFON":"01 4000 8042","WEBLINK1":"http://www.wien.gv.at/umwelt/parks/anlagen/index.html","SE_ANNO_CAD_DATA":null}},{"type":"Feature","id":"PARKINFOOGD.2008367","geometry":{"type":"Point","coordinates":[16.38249171,48.27781251]},"geometry_name":"SHAPE","properties":{"OBJECTID":2008367,"ANL_NAME":"Vilma-Webenau-Park","BEZIRK":21,"FLAECHE":"38.927 m²","OEFF_ZEITEN":"0:00-24:00","SPIELEN_IM_PARK":"Ja","WASSER_IM_PARK":"Ja","HUNDE_IM_PARK":"Ja","TELEFON":"01 4000 8042","WEBLINK1":"http://www.wien.gv.at/umwelt/parks/anlagen/index.html","SE_ANNO_CAD_DATA":null}},{"type":"Feature","id":"PARKINFOOGD.2008368","geometry":{"type":"Point","coordinates":[16.45598159,48.27691821]},"geometry_name":"SHAPE","properties":{"OBJECTID":2008368,"ANL_NAME":"PA Ernst-Kein-Gasse","BEZIRK":21,"FLAECHE":"19.595 m²","OEFF_ZEITEN":"0:00-24:00","SPIELEN_IM_PARK":"Ja","WASSER_IM_PARK":"Ja","HUNDE_IM_PARK":"Nein","TELEFON":"01 4000 8042","WEBLINK1":"http://www.wien.gv.at/umwelt/parks/anlagen/index.html","SE_ANNO_CAD_DATA":null}},{"type":"Feature","id":"PARKINFOOGD.2008369","geometry":{"type":"Point","coordinates":[16.42275844,48.27565872]},"geometry_name":"SHAPE","properties":{"OBJECTID":2008369,"ANL_NAME":"PA Pfendlergasse","BEZIRK":21,"FLAECHE":"12.140 m²","OEFF_ZEITEN":"0:00-24:00","SPIELEN_IM_PARK":"Ja","WASSER_IM_PARK":"Ja","HUNDE_IM_PARK":"Nein","TELEFON":"01 4000 8042","WEBLINK1":"http://www.wien.gv.at/umwelt/parks/anlagen/index.html","SE_ANNO_CAD_DATA":null}},{"type":"Feature","id":"PARKINFOOGD.2008370","geometry":{"type":"Point","coordinates":[16.38050928,48.2881338]},"geometry_name":"SHAPE","properties":{"OBJECTID":2008370,"ANL_NAME":"PA Miklosichgasse","BEZIRK":21,"FLAECHE":"1.183 m²","OEFF_ZEITEN":"0:00-24:00","SPIELEN_IM_PARK":"Nein","WASSER_IM_PARK":"Nein","HUNDE_IM_PARK":"Nein","TELEFON":"01 4000 8042","WEBLINK1":"http://www.wien.gv.at/umwelt/parks/anlagen/index.html","SE_ANNO_CAD_DATA":null}},{"type":"Feature","id":"PARKINFOOGD.2008371","geometry":{"type":"Point","coordinates":[16.41208666,48.28784944]},"geometry_name":"SHAPE","properties":{"OBJECTID":2008371,"ANL_NAME":"PA Hanreitergasse","BEZIRK":21,"FLAECHE":"15.890 m²","OEFF_ZEITEN":"0:00-24:00","SPIELEN_IM_PARK":"Nein","WASSER_IM_PARK":"Nein","HUNDE_IM_PARK":"Nein","TELEFON":"01 4000 8042","WEBLINK1":"http://www.wien.gv.at/umwelt/parks/anlagen/index.html","SE_ANNO_CAD_DATA":null}},{"type":"Feature","id":"PARKINFOOGD.2008372","geometry":{"type":"Point","coordinates":[16.47025254,48.22751369]},"geometry_name":"SHAPE","properties":{"OBJECTID":2008372,"ANL_NAME":"GA Zschokkegasse","BEZIRK":22,"FLAECHE":"605 m²","OEFF_ZEITEN":"0:00-24:00","SPIELEN_IM_PARK":"Ja","WASSER_IM_PARK":"Nein","HUNDE_IM_PARK":"Nein","TELEFON":"01 4000 8042","WEBLINK1":"http://www.wien.gv.at/umwelt/parks/anlagen/index.html","SE_ANNO_CAD_DATA":null}},{"type":"Feature","id":"PARKINFOOGD.2008373","geometry":{"type":"Point","coordinates":[16.48052992,48.22031648]},"geometry_name":"SHAPE","properties":{"OBJECTID":2008373,"ANL_NAME":"GA Aspernstraße","BEZIRK":22,"FLAECHE":"545 m²","OEFF_ZEITEN":"0:00-24:00","SPIELEN_IM_PARK":"Nein","WASSER_IM_PARK":"Ja","HUNDE_IM_PARK":"Ja","TELEFON":"01 4000 8042","WEBLINK1":"http://www.wien.gv.at/umwelt/parks/anlagen/index.html","SE_ANNO_CAD_DATA":null}},{"type":"Feature","id":"PARKINFOOGD.2008374","geometry":{"type":"Point","coordinates":[16.29866853,48.19669]},"geometry_name":"SHAPE","properties":{"OBJECTID":2008374,"ANL_NAME":"GA Rottstraße","BEZIRK":14,"FLAECHE":"389 m²","OEFF_ZEITEN":"0:00-24:00","SPIELEN_IM_PARK":"Ja","WASSER_IM_PARK":"Nein","HUNDE_IM_PARK":"Nein","TELEFON":"01 4000 8042","WEBLINK1":"http://www.wien.gv.at/umwelt/parks/anlagen/index.html","SE_ANNO_CAD_DATA":null}},{"type":"Feature","id":"PARKINFOOGD.2008375","geometry":{"type":"Point","coordinates":[16.26608294,48.18827528]},"geometry_name":"SHAPE","properties":{"OBJECTID":2008375,"ANL_NAME":"Dechant-Kinzl-Park","BEZIRK":13,"FLAECHE":"1.521 m²","OEFF_ZEITEN":"0:00-24:00","SPIELEN_IM_PARK":"Nein","WASSER_IM_PARK":"Nein","HUNDE_IM_PARK":"Nein","TELEFON":"01 4000 8042","WEBLINK1":"http://www.wien.gv.at/umwelt/parks/anlagen/index.html","SE_ANNO_CAD_DATA":null}},{"type":"Feature","id":"PARKINFOOGD.2008376","geometry":{"type":"Point","coordinates":[16.4257025,48.17676314]},"geometry_name":"SHAPE","properties":{"OBJECTID":2008376,"ANL_NAME":"PA Lautenschlägergasse","BEZIRK":11,"FLAECHE":"1.639 m²","OEFF_ZEITEN":"0:00-24:00","SPIELEN_IM_PARK":"Nein","WASSER_IM_PARK":"Ja","HUNDE_IM_PARK":"Ja","TELEFON":"01 4000 8042","WEBLINK1":"http://www.wien.gv.at/umwelt/parks/anlagen/index.html","SE_ANNO_CAD_DATA":null}},{"type":"Feature","id":"PARKINFOOGD.2008377","geometry":{"type":"Point","coordinates":[16.29704453,48.16839272]},"geometry_name":"SHAPE","properties":{"OBJECTID":2008377,"ANL_NAME":"GA Defreggerstraße","BEZIRK":12,"FLAECHE":"4.359 m²","OEFF_ZEITEN":"0:00-24:00","SPIELEN_IM_PARK":"Ja","WASSER_IM_PARK":"Ja","HUNDE_IM_PARK":"Nein","TELEFON":"01 4000 8042","WEBLINK1":"http://www.wien.gv.at/umwelt/parks/anlagen/index.html","SE_ANNO_CAD_DATA":null}},{"type":"Feature","id":"PARKINFOOGD.2008378","geometry":{"type":"Point","coordinates":[16.35735195,48.16527338]},"geometry_name":"SHAPE","properties":{"OBJECTID":2008378,"ANL_NAME":"GA Stefan-Fadinger-Platz","BEZIRK":10,"FLAECHE":"4.254 m²","OEFF_ZEITEN":"0:00-24:00","SPIELEN_IM_PARK":"Ja","WASSER_IM_PARK":"Nein","HUNDE_IM_PARK":"Nein","TELEFON":"01 4000 8042","WEBLINK1":"http://www.wien.gv.at/umwelt/parks/anlagen/index.html","SE_ANNO_CAD_DATA":null}},{"type":"Feature","id":"PARKINFOOGD.2008379","geometry":{"type":"Point","coordinates":[16.35829274,48.15485896]},"geometry_name":"SHAPE","properties":{"OBJECTID":2008379,"ANL_NAME":"GA Frödenplatz","BEZIRK":10,"FLAECHE":"11.216 m²","OEFF_ZEITEN":"0:00-24:00","SPIELEN_IM_PARK":"Ja","WASSER_IM_PARK":"Nein","HUNDE_IM_PARK":"Nein","TELEFON":"01 4000 8042","WEBLINK1":"http://www.wien.gv.at/umwelt/parks/anlagen/index.html","SE_ANNO_CAD_DATA":null}},{"type":"Feature","id":"PARKINFOOGD.2008380","geometry":{"type":"Point","coordinates":[16.35631327,48.23029298]},"geometry_name":"SHAPE","properties":{"OBJECTID":2008380,"ANL_NAME":"GA Liechtensteinstraße","BEZIRK":9,"FLAECHE":"737 m²","OEFF_ZEITEN":"0:00-24:00","SPIELEN_IM_PARK":"Nein","WASSER_IM_PARK":"Nein","HUNDE_IM_PARK":"Nein","TELEFON":"01 4000 8042","WEBLINK1":"http://www.wien.gv.at/umwelt/parks/anlagen/index.html","SE_ANNO_CAD_DATA":null}},{"type":"Feature","id":"PARKINFOOGD.2008381","geometry":{"type":"Point","coordinates":[16.35998058,48.18906264]},"geometry_name":"SHAPE","properties":{"OBJECTID":2008381,"ANL_NAME":"GA Viktor-Christ-Gasse","BEZIRK":5,"FLAECHE":"419 m²","OEFF_ZEITEN":"0:00-24:00","SPIELEN_IM_PARK":"Nein","WASSER_IM_PARK":"Nein","HUNDE_IM_PARK":"Nein","TELEFON":"01 4000 8042","WEBLINK1":"http://www.wien.gv.at/umwelt/parks/anlagen/index.html","SE_ANNO_CAD_DATA":null}},{"type":"Feature","id":"PARKINFOOGD.2008382","geometry":{"type":"Point","coordinates":[16.4011531,48.19289148]},"geometry_name":"SHAPE","properties":{"OBJECTID":2008382,"ANL_NAME":"Pauluspark","BEZIRK":3,"FLAECHE":"1.780 m²","OEFF_ZEITEN":"0:00-24:00","SPIELEN_IM_PARK":"Ja","WASSER_IM_PARK":"Ja","HUNDE_IM_PARK":"Nein","TELEFON":"01 4000 8042","WEBLINK1":"http://www.wien.gv.at/umwelt/parks/anlagen/index.html","SE_ANNO_CAD_DATA":null}},{"type":"Feature","id":"PARKINFOOGD.2008383","geometry":{"type":"Point","coordinates":[16.39792988,48.20023487]},"geometry_name":"SHAPE","properties":{"OBJECTID":2008383,"ANL_NAME":"GA Apostelgasse","BEZIRK":3,"FLAECHE":"501 m²","OEFF_ZEITEN":"0:00-24:00","SPIELEN_IM_PARK":"Nein","WASSER_IM_PARK":"Nein","HUNDE_IM_PARK":"Nein","TELEFON":"01 4000 8042","WEBLINK1":"http://www.wien.gv.at/umwelt/parks/anlagen/index.html","SE_ANNO_CAD_DATA":null}},{"type":"Feature","id":"PARKINFOOGD.2008384","geometry":{"type":"Point","coordinates":[16.37491771,48.20758608]},"geometry_name":"SHAPE","properties":{"OBJECTID":2008384,"ANL_NAME":"GA Grünangergasse","BEZIRK":1,"FLAECHE":"267 m²","OEFF_ZEITEN":"0:00-24:00","SPIELEN_IM_PARK":"Nein","WASSER_IM_PARK":"Nein","HUNDE_IM_PARK":"Nein","TELEFON":"01 4000 8042","WEBLINK1":"http://www.wien.gv.at/umwelt/parks/anlagen/index.html","SE_ANNO_CAD_DATA":null}},{"type":"Feature","id":"PARKINFOOGD.2008385","geometry":{"type":"Point","coordinates":[16.41854998,48.23189328]},"geometry_name":"SHAPE","properties":{"OBJECTID":2008385,"ANL_NAME":"PA Am Kaiserwasser","BEZIRK":22,"FLAECHE":"47.391 m²","OEFF_ZEITEN":"0:00-24:00","SPIELEN_IM_PARK":"Ja","WASSER_IM_PARK":"Ja","HUNDE_IM_PARK":"Nein","TELEFON":"01 4000 8042","WEBLINK1":"http://www.wien.gv.at/umwelt/parks/anlagen/index.html","SE_ANNO_CAD_DATA":null}},{"type":"Feature","id":"PARKINFOOGD.2008386","geometry":{"type":"Point","coordinates":[16.33629067,48.1932219]},"geometry_name":"SHAPE","properties":{"OBJECTID":2008386,"ANL_NAME":"PA Haidmannsgasse","BEZIRK":15,"FLAECHE":"839 m²","OEFF_ZEITEN":"Nov-März: 08:00-19:00, Apr-Okt: 08:00-20:00","SPIELEN_IM_PARK":"Ja","WASSER_IM_PARK":"Nein","HUNDE_IM_PARK":"Nein","TELEFON":"01 4000 8042","WEBLINK1":"http://www.wien.gv.at/umwelt/parks/anlagen/index.html","SE_ANNO_CAD_DATA":null}},{"type":"Feature","id":"PARKINFOOGD.2008387","geometry":{"type":"Point","coordinates":[16.36894196,48.20491042]},"geometry_name":"SHAPE","properties":{"OBJECTID":2008387,"ANL_NAME":"GA Helmut-Zilk-Platz","BEZIRK":1,"FLAECHE":"966 m²","OEFF_ZEITEN":"0:00-24:00","SPIELEN_IM_PARK":"Nein","WASSER_IM_PARK":"Nein","HUNDE_IM_PARK":"Nein","TELEFON":"01 4000 8042","WEBLINK1":"http://www.wien.gv.at/umwelt/parks/anlagen/index.html","SE_ANNO_CAD_DATA":null}},{"type":"Feature","id":"PARKINFOOGD.2008388","geometry":{"type":"Point","coordinates":[16.47219412,48.24591808]},"geometry_name":"SHAPE","properties":{"OBJECTID":2008388,"ANL_NAME":"Jakob-Bindel-Park","BEZIRK":22,"FLAECHE":"6.599 m²","OEFF_ZEITEN":"0:00-24:00","SPIELEN_IM_PARK":"Ja","WASSER_IM_PARK":"Ja","HUNDE_IM_PARK":"Nein","TELEFON":"01 4000 8042","WEBLINK1":"http://www.wien.gv.at/umwelt/parks/anlagen/index.html","SE_ANNO_CAD_DATA":null}},{"type":"Feature","id":"PARKINFOOGD.2008389","geometry":{"type":"Point","coordinates":[16.27465444,48.1398463]},"geometry_name":"SHAPE","properties":{"OBJECTID":2008389,"ANL_NAME":"Bertha-Neumann-Park","BEZIRK":23,"FLAECHE":"846 m²","OEFF_ZEITEN":"0:00-24:00","SPIELEN_IM_PARK":"Nein","WASSER_IM_PARK":"Nein","HUNDE_IM_PARK":"Nein","TELEFON":"01 4000 8042","WEBLINK1":"http://www.wien.gv.at/umwelt/parks/anlagen/index.html","SE_ANNO_CAD_DATA":null}},{"type":"Feature","id":"PARKINFOOGD.2008390","geometry":{"type":"Point","coordinates":[16.28347552,48.14118683]},"geometry_name":"SHAPE","properties":{"OBJECTID":2008390,"ANL_NAME":"PA Robinsonweg","BEZIRK":23,"FLAECHE":"7.432 m²","OEFF_ZEITEN":"0:00-24:00","SPIELEN_IM_PARK":"Ja","WASSER_IM_PARK":"Nein","HUNDE_IM_PARK":"Nein","TELEFON":"01 4000 8042","WEBLINK1":"http://www.wien.gv.at/umwelt/parks/anlagen/index.html","SE_ANNO_CAD_DATA":null}},{"type":"Feature","id":"PARKINFOOGD.2008391","geometry":{"type":"Point","coordinates":[16.29116193,48.13837294]},"geometry_name":"SHAPE","properties":{"OBJECTID":2008391,"ANL_NAME":"PA Gaulgasse","BEZIRK":23,"FLAECHE":"7.358 m²","OEFF_ZEITEN":"0:00-24:00","SPIELEN_IM_PARK":"Nein","WASSER_IM_PARK":"Nein","HUNDE_IM_PARK":"Ja","TELEFON":"01 4000 8042","WEBLINK1":"http://www.wien.gv.at/umwelt/parks/anlagen/index.html","SE_ANNO_CAD_DATA":null}},{"type":"Feature","id":"PARKINFOOGD.2008392","geometry":{"type":"Point","coordinates":[16.36088867,48.14498678]},"geometry_name":"SHAPE","properties":{"OBJECTID":2008392,"ANL_NAME":"PA Kolbegasse","BEZIRK":23,"FLAECHE":"3.544 m²","OEFF_ZEITEN":"0:00-24:00","SPIELEN_IM_PARK":"Nein","WASSER_IM_PARK":"Nein","HUNDE_IM_PARK":"Nein","TELEFON":"01 4000 8042","WEBLINK1":"http://www.wien.gv.at/umwelt/parks/anlagen/index.html","SE_ANNO_CAD_DATA":null}},{"type":"Feature","id":"PARKINFOOGD.2008393","geometry":{"type":"Point","coordinates":[16.26521572,48.16718853]},"geometry_name":"SHAPE","properties":{"OBJECTID":2008393,"ANL_NAME":"PA Friedenszeile","BEZIRK":13,"FLAECHE":"824 m²","OEFF_ZEITEN":"0:00-24:00","SPIELEN_IM_PARK":"Nein","WASSER_IM_PARK":"Nein","HUNDE_IM_PARK":"Nein","TELEFON":"01 4000 8042","WEBLINK1":"http://www.wien.gv.at/umwelt/parks/anlagen/index.html","SE_ANNO_CAD_DATA":null}},{"type":"Feature","id":"PARKINFOOGD.2008394","geometry":{"type":"Point","coordinates":[16.328035,48.23489436]},"geometry_name":"SHAPE","properties":{"OBJECTID":2008394,"ANL_NAME":"PA Türkenschanzplatz","BEZIRK":18,"FLAECHE":"1.949 m²","OEFF_ZEITEN":"0:00-24:00","SPIELEN_IM_PARK":"Nein","WASSER_IM_PARK":"Nein","HUNDE_IM_PARK":"Nein","TELEFON":"01 4000 8042","WEBLINK1":"http://www.wien.gv.at/umwelt/parks/anlagen/index.html","SE_ANNO_CAD_DATA":null}},{"type":"Feature","id":"PARKINFOOGD.2008395","geometry":{"type":"Point","coordinates":[16.33321031,48.23545486]},"geometry_name":"SHAPE","properties":{"OBJECTID":2008395,"ANL_NAME":"Türkenschanzpark","BEZIRK":18,"FLAECHE":"151.564 m²","OEFF_ZEITEN":"0:00-24:00","SPIELEN_IM_PARK":"Ja","WASSER_IM_PARK":"Ja","HUNDE_IM_PARK":"Ja","TELEFON":"01 4000 8042","WEBLINK1":"http://www.wien.gv.at/umwelt/parks/anlagen/index.html","SE_ANNO_CAD_DATA":null}},{"type":"Feature","id":"PARKINFOOGD.2008396","geometry":{"type":"Point","coordinates":[16.30244868,48.23833038]},"geometry_name":"SHAPE","properties":{"OBJECTID":2008396,"ANL_NAME":"PA Tichyweg","BEZIRK":18,"FLAECHE":"8.052 m²","OEFF_ZEITEN":"0:00-24:00","SPIELEN_IM_PARK":"Nein","WASSER_IM_PARK":"Nein","HUNDE_IM_PARK":"Nein","TELEFON":"01 4000 8042","WEBLINK1":"http://www.wien.gv.at/umwelt/parks/anlagen/index.html","SE_ANNO_CAD_DATA":null}},{"type":"Feature","id":"PARKINFOOGD.2008397","geometry":{"type":"Point","coordinates":[16.3389414,48.22675848]},"geometry_name":"SHAPE","properties":{"OBJECTID":2008397,"ANL_NAME":"Schubertpark","BEZIRK":18,"FLAECHE":"13.358 m²","OEFF_ZEITEN":"Ballspielkäfig: Okt-März: 07:00-19:00, Apr-Sep: 07:00-22:00, Hundezone: 06:00-22:00","SPIELEN_IM_PARK":"Ja","WASSER_IM_PARK":"Ja","HUNDE_IM_PARK":"Ja","TELEFON":"01 4000 8042","WEBLINK1":"http://www.wien.gv.at/umwelt/parks/anlagen/index.html","SE_ANNO_CAD_DATA":null}},{"type":"Feature","id":"PARKINFOOGD.2008398","geometry":{"type":"Point","coordinates":[16.2985218,48.24593295]},"geometry_name":"SHAPE","properties":{"OBJECTID":2008398,"ANL_NAME":"PA Pötzleinsdorfer Höhe","BEZIRK":18,"FLAECHE":"4.588 m²","OEFF_ZEITEN":"0:00-24:00","SPIELEN_IM_PARK":"Nein","WASSER_IM_PARK":"Nein","HUNDE_IM_PARK":"Nein","TELEFON":"01 4000 8042","WEBLINK1":"http://www.wien.gv.at/umwelt/parks/anlagen/index.html","SE_ANNO_CAD_DATA":null}},{"type":"Feature","id":"PARKINFOOGD.2008399","geometry":{"type":"Point","coordinates":[16.33574928,48.22840381]},"geometry_name":"SHAPE","properties":{"OBJECTID":2008399,"ANL_NAME":"Norbert-Liebermann-Park","BEZIRK":18,"FLAECHE":"2.787 m²","OEFF_ZEITEN":"0:00-24:00","SPIELEN_IM_PARK":"Nein","WASSER_IM_PARK":"Ja","HUNDE_IM_PARK":"Nein","TELEFON":"01 4000 8042","WEBLINK1":"http://www.wien.gv.at/umwelt/parks/anlagen/index.html","SE_ANNO_CAD_DATA":null}},{"type":"Feature","id":"PARKINFOOGD.2008400","geometry":{"type":"Point","coordinates":[16.30863235,48.23459033]},"geometry_name":"SHAPE","properties":{"OBJECTID":2008400,"ANL_NAME":"PA Naaffgasse","BEZIRK":18,"FLAECHE":"926 m²","OEFF_ZEITEN":"0:00-24:00","SPIELEN_IM_PARK":"Ja","WASSER_IM_PARK":"Nein","HUNDE_IM_PARK":"Nein","TELEFON":"01 4000 8042","WEBLINK1":"http://www.wien.gv.at/umwelt/parks/anlagen/index.html","SE_ANNO_CAD_DATA":null}},{"type":"Feature","id":"PARKINFOOGD.2008401","geometry":{"type":"Point","coordinates":[16.31213137,48.23901718]},"geometry_name":"SHAPE","properties":{"OBJECTID":2008401,"ANL_NAME":"PA Leopoldsplateau","BEZIRK":18,"FLAECHE":"1.786 m²","OEFF_ZEITEN":"0:00-24:00","SPIELEN_IM_PARK":"Nein","WASSER_IM_PARK":"Nein","HUNDE_IM_PARK":"Nein","TELEFON":"01 4000 8042","WEBLINK1":"http://www.wien.gv.at/umwelt/parks/anlagen/index.html","SE_ANNO_CAD_DATA":null}},{"type":"Feature","id":"PARKINFOOGD.2008402","geometry":{"type":"Point","coordinates":[16.31806282,48.23145569]},"geometry_name":"SHAPE","properties":{"OBJECTID":2008402,"ANL_NAME":"Leopold-Rosenmayr-Park","BEZIRK":18,"FLAECHE":"3.985 m²","OEFF_ZEITEN":"0:00-24:00","SPIELEN_IM_PARK":"Ja","WASSER_IM_PARK":"Ja","HUNDE_IM_PARK":"Nein","TELEFON":"01 4000 8042","WEBLINK1":"http://www.wien.gv.at/umwelt/parks/anlagen/index.html","SE_ANNO_CAD_DATA":null}},{"type":"Feature","id":"PARKINFOOGD.2008403","geometry":{"type":"Point","coordinates":[16.33416248,48.23329187]},"geometry_name":"SHAPE","properties":{"OBJECTID":2008403,"ANL_NAME":"Joseph-Kainz-Park","BEZIRK":18,"FLAECHE":"4.787 m²","OEFF_ZEITEN":"0:00-24:00","SPIELEN_IM_PARK":"Nein","WASSER_IM_PARK":"Nein","HUNDE_IM_PARK":"Nein","TELEFON":"01 4000 8042","WEBLINK1":"http://www.wien.gv.at/umwelt/parks/anlagen/index.html","SE_ANNO_CAD_DATA":null}},{"type":"Feature","id":"PARKINFOOGD.2008404","geometry":{"type":"Point","coordinates":[16.33674678,48.22351694]},"geometry_name":"SHAPE","properties":{"OBJECTID":2008404,"ANL_NAME":"PA Johann-Nepomuk-Vogl-Platz","BEZIRK":18,"FLAECHE":"887 m²","OEFF_ZEITEN":"0:00-24:00","SPIELEN_IM_PARK":"Ja","WASSER_IM_PARK":"Ja","HUNDE_IM_PARK":"Nein","TELEFON":"01 4000 8042","WEBLINK1":"http://www.wien.gv.at/umwelt/parks/anlagen/index.html","SE_ANNO_CAD_DATA":null}},{"type":"Feature","id":"PARKINFOOGD.2008405","geometry":{"type":"Point","coordinates":[16.31897492,48.23714469]},"geometry_name":"SHAPE","properties":{"OBJECTID":2008405,"ANL_NAME":"Gerda-Lerner-Park","BEZIRK":18,"FLAECHE":"1.253 m²","OEFF_ZEITEN":"0:00-24:00","SPIELEN_IM_PARK":"Ja","WASSER_IM_PARK":"Ja","HUNDE_IM_PARK":"Nein","TELEFON":"01 4000 8042","WEBLINK1":"http://www.wien.gv.at/umwelt/parks/anlagen/index.html","SE_ANNO_CAD_DATA":null}},{"type":"Feature","id":"PARKINFOOGD.2008406","geometry":{"type":"Point","coordinates":[16.33508302,48.22672874]},"geometry_name":"SHAPE","properties":{"OBJECTID":2008406,"ANL_NAME":"Ebner-Eschenbach-Park","BEZIRK":18,"FLAECHE":"4.881 m²","OEFF_ZEITEN":"Ballspielkäfig: Okt-Mär: 7:00-19:00, Apr-Sep: 7:00-22:00","SPIELEN_IM_PARK":"Ja","WASSER_IM_PARK":"Ja","HUNDE_IM_PARK":"Nein","TELEFON":"01 4000 8042","WEBLINK1":"http://www.wien.gv.at/umwelt/parks/anlagen/index.html","SE_ANNO_CAD_DATA":null}},{"type":"Feature","id":"PARKINFOOGD.2008407","geometry":{"type":"Point","coordinates":[16.34246866,48.22083879]},"geometry_name":"SHAPE","properties":{"OBJECTID":2008407,"ANL_NAME":"Anton-Baumann-Park","BEZIRK":18,"FLAECHE":"3.181 m²","OEFF_ZEITEN":"Ballspielkäfig: Okt-Mär: 7:00-19:00, Apr-Sep: 7:00-22:00","SPIELEN_IM_PARK":"Ja","WASSER_IM_PARK":"Ja","HUNDE_IM_PARK":"Nein","TELEFON":"01 4000 8042","WEBLINK1":"http://www.wien.gv.at/umwelt/parks/anlagen/index.html","SE_ANNO_CAD_DATA":null}},{"type":"Feature","id":"PARKINFOOGD.2008408","geometry":{"type":"Point","coordinates":[16.32458462,48.23416255]},"geometry_name":"SHAPE","properties":{"OBJECTID":2008408,"ANL_NAME":"Albert-Dub-Park","BEZIRK":18,"FLAECHE":"6.266 m²","OEFF_ZEITEN":"0:00-24:00","SPIELEN_IM_PARK":"Ja","WASSER_IM_PARK":"Ja","HUNDE_IM_PARK":"Nein","TELEFON":"01 4000 8042","WEBLINK1":"http://www.wien.gv.at/umwelt/parks/anlagen/index.html","SE_ANNO_CAD_DATA":null}},{"type":"Feature","id":"PARKINFOOGD.2008409","geometry":{"type":"Point","coordinates":[16.29146127,48.23332473]},"geometry_name":"SHAPE","properties":{"OBJECTID":2008409,"ANL_NAME":"PA Rudolf-Kirchschläger-Platz","BEZIRK":17,"FLAECHE":"523 m²","OEFF_ZEITEN":"0:00-24:00","SPIELEN_IM_PARK":"Nein","WASSER_IM_PARK":"Nein","HUNDE_IM_PARK":"Nein","TELEFON":"01 4000 8042","WEBLINK1":"http://www.wien.gv.at/umwelt/parks/anlagen/index.html","SE_ANNO_CAD_DATA":null}},{"type":"Feature","id":"PARKINFOOGD.2008410","geometry":{"type":"Point","coordinates":[16.33461715,48.21880142]},"geometry_name":"SHAPE","properties":{"OBJECTID":2008410,"ANL_NAME":"Frederic-Morton-Park","BEZIRK":17,"FLAECHE":"2.143 m²","OEFF_ZEITEN":"0:00-24:00","SPIELEN_IM_PARK":"Ja","WASSER_IM_PARK":"Ja","HUNDE_IM_PARK":"Nein","TELEFON":"01 4000 8042","WEBLINK1":"http://www.wien.gv.at/umwelt/parks/anlagen/index.html","SE_ANNO_CAD_DATA":null}},{"type":"Feature","id":"PARKINFOOGD.2008411","geometry":{"type":"Point","coordinates":[16.37121343,48.23187239]},"geometry_name":"SHAPE","properties":{"OBJECTID":2008411,"ANL_NAME":"Brigittapark","BEZIRK":20,"FLAECHE":"8.279 m²","OEFF_ZEITEN":"0:00-24:00","SPIELEN_IM_PARK":"Nein","WASSER_IM_PARK":"Nein","HUNDE_IM_PARK":"Nein","TELEFON":"01 4000 8042","WEBLINK1":"http://www.wien.gv.at/umwelt/parks/anlagen/index.html","SE_ANNO_CAD_DATA":null}},{"type":"Feature","id":"PARKINFOOGD.2008412","geometry":{"type":"Point","coordinates":[16.36339447,48.23062138]},"geometry_name":"SHAPE","properties":{"OBJECTID":2008412,"ANL_NAME":"Anton-Schmid-Promenade/WP","BEZIRK":20,"FLAECHE":"42.273 m²","OEFF_ZEITEN":"0:00-24:00","SPIELEN_IM_PARK":"Ja","WASSER_IM_PARK":"Ja","HUNDE_IM_PARK":"Ja","TELEFON":"01 4000 8042","WEBLINK1":"http://www.wien.gv.at/umwelt/parks/anlagen/index.html","SE_ANNO_CAD_DATA":null}},{"type":"Feature","id":"PARKINFOOGD.2007981","geometry":{"type":"Point","coordinates":[16.34388493,48.19377058]},"geometry_name":"SHAPE","properties":{"OBJECTID":2007981,"ANL_NAME":"Vinzenz-von-Paul-Park","BEZIRK":6,"FLAECHE":"824 m²","OEFF_ZEITEN":"08:00-19:00","SPIELEN_IM_PARK":"Ja","WASSER_IM_PARK":"Ja","HUNDE_IM_PARK":"Nein","TELEFON":"01 4000 8042","WEBLINK1":"http://www.wien.gv.at/umwelt/parks/anlagen/index.html","SE_ANNO_CAD_DATA":null}},{"type":"Feature","id":"PARKINFOOGD.2007982","geometry":{"type":"Point","coordinates":[16.35375639,48.1910938]},"geometry_name":"SHAPE","properties":{"OBJECTID":2007982,"ANL_NAME":"Rosa-Janku-Park","BEZIRK":5,"FLAECHE":"1.202 m²","OEFF_ZEITEN":"0:00-24:00","SPIELEN_IM_PARK":"Nein","WASSER_IM_PARK":"Ja","HUNDE_IM_PARK":"Nein","TELEFON":"01 4000 8042","WEBLINK1":"http://www.wien.gv.at/umwelt/parks/anlagen/index.html","SE_ANNO_CAD_DATA":null}},{"type":"Feature","id":"PARKINFOOGD.2007983","geometry":{"type":"Point","coordinates":[16.36315633,48.19641531]},"geometry_name":"SHAPE","properties":{"OBJECTID":2007983,"ANL_NAME":"Planquadrat Park","BEZIRK":4,"FLAECHE":"4.745 m²","OEFF_ZEITEN":"keine Angabe","SPIELEN_IM_PARK":"Ja","WASSER_IM_PARK":"Ja","HUNDE_IM_PARK":"Nein","TELEFON":"01 4000 8042","WEBLINK1":"http://www.wien.gv.at/umwelt/parks/anlagen/index.html","SE_ANNO_CAD_DATA":null}},{"type":"Feature","id":"PARKINFOOGD.2007984","geometry":{"type":"Point","coordinates":[16.37139785,48.1867958]},"geometry_name":"SHAPE","properties":{"OBJECTID":2007984,"ANL_NAME":"PA Schelleingasse","BEZIRK":4,"FLAECHE":"5.090 m²","OEFF_ZEITEN":"Ballspielkäfig: Okt-März: 7:15-20:15, Apr-Sep: 6:30-21:15","SPIELEN_IM_PARK":"Ja","WASSER_IM_PARK":"Ja","HUNDE_IM_PARK":"Nein","TELEFON":"01 4000 8042","WEBLINK1":"http://www.wien.gv.at/umwelt/parks/anlagen/index.html","SE_ANNO_CAD_DATA":null}},{"type":"Feature","id":"PARKINFOOGD.2007985","geometry":{"type":"Point","coordinates":[16.32142423,48.15721596]},"geometry_name":"SHAPE","properties":{"OBJECTID":2007985,"ANL_NAME":"PA Danilovatzgasse","BEZIRK":12,"FLAECHE":"898 m²","OEFF_ZEITEN":"0:00-24:00","SPIELEN_IM_PARK":"Nein","WASSER_IM_PARK":"Nein","HUNDE_IM_PARK":"Nein","TELEFON":"01 4000 8042","WEBLINK1":"http://www.wien.gv.at/umwelt/parks/anlagen/index.html","SE_ANNO_CAD_DATA":null}},{"type":"Feature","id":"PARKINFOOGD.2007986","geometry":{"type":"Point","coordinates":[16.40548914,48.21690754]},"geometry_name":"SHAPE","properties":{"OBJECTID":2007986,"ANL_NAME":"Wolfgang-Kössner-Park","BEZIRK":2,"FLAECHE":"5.987 m²","OEFF_ZEITEN":"6:30-20:30","SPIELEN_IM_PARK":"Ja","WASSER_IM_PARK":"Ja","HUNDE_IM_PARK":"Nein","TELEFON":"01 4000 8042","WEBLINK1":"http://www.wien.gv.at/umwelt/parks/anlagen/index.html","SE_ANNO_CAD_DATA":null}},{"type":"Feature","id":"PARKINFOOGD.2007987","geometry":{"type":"Point","coordinates":[16.35617479,48.20734166]},"geometry_name":"SHAPE","properties":{"OBJECTID":2007987,"ANL_NAME":"PA Schmerlingplatz","BEZIRK":1,"FLAECHE":"3.391 m²","OEFF_ZEITEN":"0:00-24:00","SPIELEN_IM_PARK":"Nein","WASSER_IM_PARK":"Ja","HUNDE_IM_PARK":"Nein","TELEFON":"01 4000 8042","WEBLINK1":"http://www.wien.gv.at/umwelt/parks/anlagen/index.html","SE_ANNO_CAD_DATA":null}},{"type":"Feature","id":"PARKINFOOGD.2007988","geometry":{"type":"Point","coordinates":[16.44020929,48.15646936]},"geometry_name":"SHAPE","properties":{"OBJECTID":2007988,"ANL_NAME":"GA Feuerhalle Simmering","BEZIRK":11,"FLAECHE":"26.028 m²","OEFF_ZEITEN":"0:00-24:00","SPIELEN_IM_PARK":"Ja","WASSER_IM_PARK":"Nein","HUNDE_IM_PARK":"Nein","TELEFON":"01 4000 8042","WEBLINK1":"http://www.wien.gv.at/umwelt/parks/anlagen/index.html","SE_ANNO_CAD_DATA":null}},{"type":"Feature","id":"PARKINFOOGD.2007989","geometry":{"type":"Point","coordinates":[16.45563264,48.25284883]},"geometry_name":"SHAPE","properties":{"OBJECTID":2007989,"ANL_NAME":"PA Ernst-Jandl-Weg","BEZIRK":22,"FLAECHE":"4.097 m²","OEFF_ZEITEN":"0:00-24:00","SPIELEN_IM_PARK":"Ja","WASSER_IM_PARK":"Nein","HUNDE_IM_PARK":"Nein","TELEFON":"01 4000 8042","WEBLINK1":"http://www.wien.gv.at/umwelt/parks/anlagen/index.html","SE_ANNO_CAD_DATA":null}},{"type":"Feature","id":"PARKINFOOGD.2007990","geometry":{"type":"Point","coordinates":[16.4614629,48.26233215]},"geometry_name":"SHAPE","properties":{"OBJECTID":2007990,"ANL_NAME":"PA Rautenweg","BEZIRK":22,"FLAECHE":"1.018 m²","OEFF_ZEITEN":"0:00-24:00","SPIELEN_IM_PARK":"Nein","WASSER_IM_PARK":"Nein","HUNDE_IM_PARK":"Nein","TELEFON":"01 4000 8042","WEBLINK1":"http://www.wien.gv.at/umwelt/parks/anlagen/index.html","SE_ANNO_CAD_DATA":null}},{"type":"Feature","id":"PARKINFOOGD.2007991","geometry":{"type":"Point","coordinates":[16.40266479,48.24781758]},"geometry_name":"SHAPE","properties":{"OBJECTID":2007991,"ANL_NAME":"PA Angeliwiese","BEZIRK":21,"FLAECHE":"14.106 m²","OEFF_ZEITEN":"0:00-24:00","SPIELEN_IM_PARK":"Ja","WASSER_IM_PARK":"Ja","HUNDE_IM_PARK":"Nein","TELEFON":"01 4000 8042","WEBLINK1":"http://www.wien.gv.at/umwelt/parks/anlagen/index.html","SE_ANNO_CAD_DATA":null}},{"type":"Feature","id":"PARKINFOOGD.2007992","geometry":{"type":"Point","coordinates":[16.32953974,48.21636919]},"geometry_name":"SHAPE","properties":{"OBJECTID":2007992,"ANL_NAME":"Adelheid-Popp-Park","BEZIRK":17,"FLAECHE":"1.367 m²","OEFF_ZEITEN":"0:00-24:00","SPIELEN_IM_PARK":"Nein","WASSER_IM_PARK":"Ja","HUNDE_IM_PARK":"Nein","TELEFON":"01 4000 8042","WEBLINK1":"http://www.wien.gv.at/umwelt/parks/anlagen/index.html","SE_ANNO_CAD_DATA":null}},{"type":"Feature","id":"PARKINFOOGD.2007993","geometry":{"type":"Point","coordinates":[16.38478821,48.20071922]},"geometry_name":"SHAPE","properties":{"OBJECTID":2007993,"ANL_NAME":"GA Linke Bahngasse","BEZIRK":3,"FLAECHE":"2.610 m²","OEFF_ZEITEN":"Hundezone: 6:00-23:00","SPIELEN_IM_PARK":"Nein","WASSER_IM_PARK":"Nein","HUNDE_IM_PARK":"Nein","TELEFON":"01 4000 8042","WEBLINK1":"http://www.wien.gv.at/umwelt/parks/anlagen/index.html","SE_ANNO_CAD_DATA":null}},{"type":"Feature","id":"PARKINFOOGD.2007994","geometry":{"type":"Point","coordinates":[16.27518321,48.13724755]},"geometry_name":"SHAPE","properties":{"OBJECTID":2007994,"ANL_NAME":"Herbert-Mayr-Park","BEZIRK":23,"FLAECHE":"6.993 m²","OEFF_ZEITEN":"0:00-24:00","SPIELEN_IM_PARK":"Ja","WASSER_IM_PARK":"Ja","HUNDE_IM_PARK":"Nein","TELEFON":"01 4000 8042","WEBLINK1":"http://www.wien.gv.at/umwelt/parks/anlagen/index.html","SE_ANNO_CAD_DATA":null}},{"type":"Feature","id":"PARKINFOOGD.2007995","geometry":{"type":"Point","coordinates":[16.28986523,48.14809151]},"geometry_name":"SHAPE","properties":{"OBJECTID":2007995,"ANL_NAME":"Mayer-von-Rosenau-Park","BEZIRK":23,"FLAECHE":"1.446 m²","OEFF_ZEITEN":"0:00-24:00","SPIELEN_IM_PARK":"Nein","WASSER_IM_PARK":"Nein","HUNDE_IM_PARK":"Nein","TELEFON":"01 4000 8042","WEBLINK1":"http://www.wien.gv.at/umwelt/parks/anlagen/index.html","SE_ANNO_CAD_DATA":null}},{"type":"Feature","id":"PARKINFOOGD.2007996","geometry":{"type":"Point","coordinates":[16.38566523,48.2697842]},"geometry_name":"SHAPE","properties":{"OBJECTID":2007996,"ANL_NAME":"PA Lorettoplatz","BEZIRK":21,"FLAECHE":"417 m²","OEFF_ZEITEN":"0:00-24:00","SPIELEN_IM_PARK":"Nein","WASSER_IM_PARK":"Nein","HUNDE_IM_PARK":"Nein","TELEFON":"01 4000 8042","WEBLINK1":"http://www.wien.gv.at/umwelt/parks/anlagen/index.html","SE_ANNO_CAD_DATA":null}},{"type":"Feature","id":"PARKINFOOGD.2007997","geometry":{"type":"Point","coordinates":[16.39531126,48.25222806]},"geometry_name":"SHAPE","properties":{"OBJECTID":2007997,"ANL_NAME":"Wasserpark","BEZIRK":21,"FLAECHE":"143.924 m²","OEFF_ZEITEN":"0:00-24:00","SPIELEN_IM_PARK":"Ja","WASSER_IM_PARK":"Ja","HUNDE_IM_PARK":"Nein","TELEFON":"01 4000 8042","WEBLINK1":"http://www.wien.gv.at/umwelt/parks/anlagen/index.html","SE_ANNO_CAD_DATA":null}},{"type":"Feature","id":"PARKINFOOGD.2007998","geometry":{"type":"Point","coordinates":[16.29847425,48.22945866]},"geometry_name":"SHAPE","properties":{"OBJECTID":2007998,"ANL_NAME":"PA Rupertusplatz","BEZIRK":17,"FLAECHE":"1.716 m²","OEFF_ZEITEN":"0:00-24:00","SPIELEN_IM_PARK":"Ja","WASSER_IM_PARK":"Nein","HUNDE_IM_PARK":"Nein","TELEFON":"01 4000 8042","WEBLINK1":"http://www.wien.gv.at/umwelt/parks/anlagen/index.html","SE_ANNO_CAD_DATA":null}},{"type":"Feature","id":"PARKINFOOGD.2007999","geometry":{"type":"Point","coordinates":[16.29053773,48.15895089]},"geometry_name":"SHAPE","properties":{"OBJECTID":2007999,"ANL_NAME":"PA Schluckergasse","BEZIRK":13,"FLAECHE":"12.235 m²","OEFF_ZEITEN":"0:00-24:00","SPIELEN_IM_PARK":"Ja","WASSER_IM_PARK":"Ja","HUNDE_IM_PARK":"Nein","TELEFON":"01 4000 8042","WEBLINK1":"http://www.wien.gv.at/umwelt/parks/anlagen/index.html","SE_ANNO_CAD_DATA":null}},{"type":"Feature","id":"PARKINFOOGD.2008000","geometry":{"type":"Point","coordinates":[16.3889418,48.20248078]},"geometry_name":"SHAPE","properties":{"OBJECTID":2008000,"ANL_NAME":"Friedrich-Gulda-Park","BEZIRK":3,"FLAECHE":"1.074 m²","OEFF_ZEITEN":"6:00-21:30","SPIELEN_IM_PARK":"Ja","WASSER_IM_PARK":"Ja","HUNDE_IM_PARK":"Nein","TELEFON":"01 4000 8042","WEBLINK1":"http://www.wien.gv.at/umwelt/parks/anlagen/index.html","SE_ANNO_CAD_DATA":null}},{"type":"Feature","id":"PARKINFOOGD.2008001","geometry":{"type":"Point","coordinates":[16.44162081,48.24523542]},"geometry_name":"SHAPE","properties":{"OBJECTID":2008001,"ANL_NAME":"Jakob-Rosenfeld-Park","BEZIRK":22,"FLAECHE":"1.891 m²","OEFF_ZEITEN":"0:00-24:00","SPIELEN_IM_PARK":"Ja","WASSER_IM_PARK":"Ja","HUNDE_IM_PARK":"Nein","TELEFON":"01 4000 8042","WEBLINK1":"http://www.wien.gv.at/umwelt/parks/anlagen/index.html","SE_ANNO_CAD_DATA":null}},{"type":"Feature","id":"PARKINFOOGD.2008002","geometry":{"type":"Point","coordinates":[16.31950707,48.15731836]},"geometry_name":"SHAPE","properties":{"OBJECTID":2008002,"ANL_NAME":"PA Altmannsdorfer Straße","BEZIRK":12,"FLAECHE":"2.173 m²","OEFF_ZEITEN":"0:00-24:00","SPIELEN_IM_PARK":"Nein","WASSER_IM_PARK":"Nein","HUNDE_IM_PARK":"Nein","TELEFON":"01 4000 8042","WEBLINK1":"http://www.wien.gv.at/umwelt/parks/anlagen/index.html","SE_ANNO_CAD_DATA":null}},{"type":"Feature","id":"PARKINFOOGD.2008003","geometry":{"type":"Point","coordinates":[16.46090422,48.15352027]},"geometry_name":"SHAPE","properties":{"OBJECTID":2008003,"ANL_NAME":"PA Am Leberberg","BEZIRK":11,"FLAECHE":"26.980 m²","OEFF_ZEITEN":"0:00-24:00","SPIELEN_IM_PARK":"Ja","WASSER_IM_PARK":"Ja","HUNDE_IM_PARK":"Nein","TELEFON":"01 4000 8042","WEBLINK1":"http://www.wien.gv.at/umwelt/parks/anlagen/index.html","SE_ANNO_CAD_DATA":null}},{"type":"Feature","id":"PARKINFOOGD.2008004","geometry":{"type":"Point","coordinates":[16.41542427,48.1809774]},"geometry_name":"SHAPE","properties":{"OBJECTID":2008004,"ANL_NAME":"PA Fuchsröhrenstraße","BEZIRK":11,"FLAECHE":"928 m²","OEFF_ZEITEN":"0:00-24:00","SPIELEN_IM_PARK":"Ja","WASSER_IM_PARK":"Ja","HUNDE_IM_PARK":"Nein","TELEFON":"01 4000 8042","WEBLINK1":"http://www.wien.gv.at/umwelt/parks/anlagen/index.html","SE_ANNO_CAD_DATA":null}},{"type":"Feature","id":"PARKINFOOGD.2008005","geometry":{"type":"Point","coordinates":[16.4178176,48.18087504]},"geometry_name":"SHAPE","properties":{"OBJECTID":2008005,"ANL_NAME":"PA Lorenz-Reiter-Straße","BEZIRK":11,"FLAECHE":"6.852 m²","OEFF_ZEITEN":"0:00-24:00","SPIELEN_IM_PARK":"Ja","WASSER_IM_PARK":"Ja","HUNDE_IM_PARK":"Nein","TELEFON":"01 4000 8042","WEBLINK1":"http://www.wien.gv.at/umwelt/parks/anlagen/index.html","SE_ANNO_CAD_DATA":null}},{"type":"Feature","id":"PARKINFOOGD.2008006","geometry":{"type":"Point","coordinates":[16.42989287,48.16877198]},"geometry_name":"SHAPE","properties":{"OBJECTID":2008006,"ANL_NAME":"PA Blériotgasse","BEZIRK":11,"FLAECHE":"17.172 m²","OEFF_ZEITEN":"Hundezone:06:00-20:00","SPIELEN_IM_PARK":"Ja","WASSER_IM_PARK":"Ja","HUNDE_IM_PARK":"Ja","TELEFON":"01 4000 8042","WEBLINK1":"http://www.wien.gv.at/umwelt/parks/anlagen/index.html","SE_ANNO_CAD_DATA":null}},{"type":"Feature","id":"PARKINFOOGD.2008007","geometry":{"type":"Point","coordinates":[16.4320428,48.16793963]},"geometry_name":"SHAPE","properties":{"OBJECTID":2008007,"ANL_NAME":"PA Florian-Hedorfer-Straße","BEZIRK":11,"FLAECHE":"1.446 m²","OEFF_ZEITEN":"0:00-24:00","SPIELEN_IM_PARK":"Nein","WASSER_IM_PARK":"Nein","HUNDE_IM_PARK":"Nein","TELEFON":"01 4000 8042","WEBLINK1":"http://www.wien.gv.at/umwelt/parks/anlagen/index.html","SE_ANNO_CAD_DATA":null}},{"type":"Feature","id":"PARKINFOOGD.2008008","geometry":{"type":"Point","coordinates":[16.37557231,48.14867444]},"geometry_name":"SHAPE","properties":{"OBJECTID":2008008,"ANL_NAME":"PA Per-Albin-Hansson-Straße","BEZIRK":10,"FLAECHE":"113.496 m²","OEFF_ZEITEN":"0:00-24:00","SPIELEN_IM_PARK":"Ja","WASSER_IM_PARK":"Nein","HUNDE_IM_PARK":"Nein","TELEFON":"01 4000 8042","WEBLINK1":"http://www.wien.gv.at/umwelt/parks/anlagen/index.html","SE_ANNO_CAD_DATA":null}},{"type":"Feature","id":"PARKINFOOGD.2008009","geometry":{"type":"Point","coordinates":[16.40803672,48.13495526]},"geometry_name":"SHAPE","properties":{"OBJECTID":2008009,"ANL_NAME":"Piratenspielplatz","BEZIRK":10,"FLAECHE":"3.931 m²","OEFF_ZEITEN":"0:00-24:00","SPIELEN_IM_PARK":"Ja","WASSER_IM_PARK":"Ja","HUNDE_IM_PARK":"Nein","TELEFON":"01 4000 8042","WEBLINK1":"http://www.wien.gv.at/umwelt/parks/anlagen/index.html","SE_ANNO_CAD_DATA":null}},{"type":"Feature","id":"PARKINFOOGD.2008010","geometry":{"type":"Point","coordinates":[16.38142772,48.15386781]},"geometry_name":"SHAPE","properties":{"OBJECTID":2008010,"ANL_NAME":"PA Favoritenstraße","BEZIRK":10,"FLAECHE":"9.918 m²","OEFF_ZEITEN":"0:00-24:00","SPIELEN_IM_PARK":"Ja","WASSER_IM_PARK":"Nein","HUNDE_IM_PARK":"Nein","TELEFON":"01 4000 8042","WEBLINK1":"http://www.wien.gv.at/umwelt/parks/anlagen/index.html","SE_ANNO_CAD_DATA":null}},{"type":"Feature","id":"PARKINFOOGD.2008011","geometry":{"type":"Point","coordinates":[16.35240486,48.16568309]},"geometry_name":"SHAPE","properties":{"OBJECTID":2008011,"ANL_NAME":"Eva-und-Otto-Benesch-Park","BEZIRK":10,"FLAECHE":"15.838 m²","OEFF_ZEITEN":"0:00-24:00","SPIELEN_IM_PARK":"Ja","WASSER_IM_PARK":"Ja","HUNDE_IM_PARK":"Nein","TELEFON":"01 4000 8042","WEBLINK1":"http://www.wien.gv.at/umwelt/parks/anlagen/index.html","SE_ANNO_CAD_DATA":null}},{"type":"Feature","id":"PARKINFOOGD.2008012","geometry":{"type":"Point","coordinates":[16.38196907,48.14867425]},"geometry_name":"SHAPE","properties":{"OBJECTID":2008012,"ANL_NAME":"PA Olaus-Petri-Gasse","BEZIRK":10,"FLAECHE":"6.212 m²","OEFF_ZEITEN":"0:00-24:00","SPIELEN_IM_PARK":"Nein","WASSER_IM_PARK":"Nein","HUNDE_IM_PARK":"Nein","TELEFON":"01 4000 8042","WEBLINK1":"http://www.wien.gv.at/umwelt/parks/anlagen/index.html","SE_ANNO_CAD_DATA":null}},{"type":"Feature","id":"PARKINFOOGD.2008013","geometry":{"type":"Point","coordinates":[16.40394452,48.13794432]},"geometry_name":"SHAPE","properties":{"OBJECTID":2008013,"ANL_NAME":"PA Ober-Laaer Platz","BEZIRK":10,"FLAECHE":"2.476 m²","OEFF_ZEITEN":"0:00-24:00","SPIELEN_IM_PARK":"Nein","WASSER_IM_PARK":"Nein","HUNDE_IM_PARK":"Nein","TELEFON":"01 4000 8042","WEBLINK1":"http://www.wien.gv.at/umwelt/parks/anlagen/index.html","SE_ANNO_CAD_DATA":null}},{"type":"Feature","id":"PARKINFOOGD.2008014","geometry":{"type":"Point","coordinates":[16.39031575,48.1425064]},"geometry_name":"SHAPE","properties":{"OBJECTID":2008014,"ANL_NAME":"PA Kurt-Tichy-Gasse","BEZIRK":10,"FLAECHE":"3.540 m²","OEFF_ZEITEN":"0:00-24:00","SPIELEN_IM_PARK":"Ja","WASSER_IM_PARK":"Ja","HUNDE_IM_PARK":"Nein","TELEFON":"01 4000 8042","WEBLINK1":"http://www.wien.gv.at/umwelt/parks/anlagen/index.html","SE_ANNO_CAD_DATA":null}},{"type":"Feature","id":"PARKINFOOGD.2008015","geometry":{"type":"Point","coordinates":[16.41484848,48.13340971]},"geometry_name":"SHAPE","properties":{"OBJECTID":2008015,"ANL_NAME":"PA Unter-Laaer Straße","BEZIRK":10,"FLAECHE":"2.997 m²","OEFF_ZEITEN":"0:00-24:00","SPIELEN_IM_PARK":"Nein","WASSER_IM_PARK":"Nein","HUNDE_IM_PARK":"Nein","TELEFON":"01 4000 8042","WEBLINK1":"http://www.wien.gv.at/umwelt/parks/anlagen/index.html","SE_ANNO_CAD_DATA":null}},{"type":"Feature","id":"PARKINFOOGD.2008016","geometry":{"type":"Point","coordinates":[16.39690923,48.13674772]},"geometry_name":"SHAPE","properties":{"OBJECTID":2008016,"ANL_NAME":"PA Hintere Liesingbachstraße","BEZIRK":10,"FLAECHE":"581 m²","OEFF_ZEITEN":"0:00-24:00","SPIELEN_IM_PARK":"Nein","WASSER_IM_PARK":"Nein","HUNDE_IM_PARK":"Nein","TELEFON":"01 4000 8042","WEBLINK1":"http://www.wien.gv.at/umwelt/parks/anlagen/index.html","SE_ANNO_CAD_DATA":null}},{"type":"Feature","id":"PARKINFOOGD.2008017","geometry":{"type":"Point","coordinates":[16.37295104,48.15906378]},"geometry_name":"SHAPE","properties":{"OBJECTID":2008017,"ANL_NAME":"PA Heuberggstätten","BEZIRK":10,"FLAECHE":"225.425 m²","OEFF_ZEITEN":"0:00-24:00","SPIELEN_IM_PARK":"Ja","WASSER_IM_PARK":"Nein","HUNDE_IM_PARK":"Ja","TELEFON":"01 4000 8042","WEBLINK1":"http://www.wien.gv.at/umwelt/parks/anlagen/index.html","SE_ANNO_CAD_DATA":null}},{"type":"Feature","id":"PARKINFOOGD.2008018","geometry":{"type":"Point","coordinates":[16.39293595,48.1447761]},"geometry_name":"SHAPE","properties":{"OBJECTID":2008018,"ANL_NAME":"PA Franz-Koci-Straße","BEZIRK":10,"FLAECHE":"8.109 m²","OEFF_ZEITEN":"0:00-24:00","SPIELEN_IM_PARK":"Ja","WASSER_IM_PARK":"Ja","HUNDE_IM_PARK":"Nein","TELEFON":"01 4000 8042","WEBLINK1":"http://www.wien.gv.at/umwelt/parks/anlagen/index.html","SE_ANNO_CAD_DATA":null}},{"type":"Feature","id":"PARKINFOOGD.2008019","geometry":{"type":"Point","coordinates":[16.41013198,48.13985867]},"geometry_name":"SHAPE","properties":{"OBJECTID":2008019,"ANL_NAME":"PA Fontanastraße","BEZIRK":10,"FLAECHE":"9.841 m²","OEFF_ZEITEN":"0:00-24:00","SPIELEN_IM_PARK":"Nein","WASSER_IM_PARK":"Nein","HUNDE_IM_PARK":"Nein","TELEFON":"01 4000 8042","WEBLINK1":"http://www.wien.gv.at/umwelt/parks/anlagen/index.html","SE_ANNO_CAD_DATA":null}},{"type":"Feature","id":"PARKINFOOGD.2008020","geometry":{"type":"Point","coordinates":[16.34805931,48.16926993]},"geometry_name":"SHAPE","properties":{"OBJECTID":2008020,"ANL_NAME":"PA Wienerbergstraße","BEZIRK":10,"FLAECHE":"429 m²","OEFF_ZEITEN":"0:00-24:00","SPIELEN_IM_PARK":"Nein","WASSER_IM_PARK":"Nein","HUNDE_IM_PARK":"Nein","TELEFON":"01 4000 8042","WEBLINK1":"http://www.wien.gv.at/umwelt/parks/anlagen/index.html","SE_ANNO_CAD_DATA":null}},{"type":"Feature","id":"PARKINFOOGD.2008021","geometry":{"type":"Point","coordinates":[16.39780932,48.13725876]},"geometry_name":"SHAPE","properties":{"OBJECTID":2008021,"ANL_NAME":"PA Bischofplatz","BEZIRK":10,"FLAECHE":"743 m²","OEFF_ZEITEN":"0:00-24:00","SPIELEN_IM_PARK":"Ja","WASSER_IM_PARK":"Nein","HUNDE_IM_PARK":"Nein","TELEFON":"01 4000 8042","WEBLINK1":"http://www.wien.gv.at/umwelt/parks/anlagen/index.html","SE_ANNO_CAD_DATA":null}},{"type":"Feature","id":"PARKINFOOGD.2008022","geometry":{"type":"Point","coordinates":[16.39938304,48.13676364]},"geometry_name":"SHAPE","properties":{"OBJECTID":2008022,"ANL_NAME":"PA Untere Kaistraße","BEZIRK":10,"FLAECHE":"693 m²","OEFF_ZEITEN":"0:00-24:00","SPIELEN_IM_PARK":"Nein","WASSER_IM_PARK":"Nein","HUNDE_IM_PARK":"Nein","TELEFON":"01 4000 8042","WEBLINK1":"http://www.wien.gv.at/umwelt/parks/anlagen/index.html","SE_ANNO_CAD_DATA":null}},{"type":"Feature","id":"PARKINFOOGD.2008023","geometry":{"type":"Point","coordinates":[16.39496029,48.14659338]},"geometry_name":"SHAPE","properties":{"OBJECTID":2008023,"ANL_NAME":"PA Johann-Pölzer-Gasse","BEZIRK":10,"FLAECHE":"3.578 m²","OEFF_ZEITEN":"0:00-24:00","SPIELEN_IM_PARK":"Ja","WASSER_IM_PARK":"Nein","HUNDE_IM_PARK":"Nein","TELEFON":"01 4000 8042","WEBLINK1":"http://www.wien.gv.at/umwelt/parks/anlagen/index.html","SE_ANNO_CAD_DATA":null}},{"type":"Feature","id":"PARKINFOOGD.2008024","geometry":{"type":"Point","coordinates":[16.36088879,48.17459214]},"geometry_name":"SHAPE","properties":{"OBJECTID":2008024,"ANL_NAME":"Barankapark-Hellerwiese","BEZIRK":10,"FLAECHE":"5.130 m²","OEFF_ZEITEN":"06:00-21:00","SPIELEN_IM_PARK":"Ja","WASSER_IM_PARK":"Ja","HUNDE_IM_PARK":"Nein","TELEFON":"01 4000 8042","WEBLINK1":"http://www.wien.gv.at/umwelt/parks/anlagen/index.html","SE_ANNO_CAD_DATA":null}},{"type":"Feature","id":"PARKINFOOGD.2008025","geometry":{"type":"Point","coordinates":[16.39244164,48.1465505]},"geometry_name":"SHAPE","properties":{"OBJECTID":2008025,"ANL_NAME":"PA Alma-Rose-Gasse","BEZIRK":10,"FLAECHE":"1.499 m²","OEFF_ZEITEN":"0:00-24:00","SPIELEN_IM_PARK":"Nein","WASSER_IM_PARK":"Nein","HUNDE_IM_PARK":"Nein","TELEFON":"01 4000 8042","WEBLINK1":"http://www.wien.gv.at/umwelt/parks/anlagen/index.html","SE_ANNO_CAD_DATA":null}},{"type":"Feature","id":"PARKINFOOGD.2008026","geometry":{"type":"Point","coordinates":[16.34887565,48.21668023]},"geometry_name":"SHAPE","properties":{"OBJECTID":2008026,"ANL_NAME":"Viktor-Frankl-Park","BEZIRK":9,"FLAECHE":"3.446 m²","OEFF_ZEITEN":"7:00-21:00","SPIELEN_IM_PARK":"Ja","WASSER_IM_PARK":"Ja","HUNDE_IM_PARK":"Nein","TELEFON":"01 4000 8042","WEBLINK1":"http://www.wien.gv.at/umwelt/parks/anlagen/index.html","SE_ANNO_CAD_DATA":null}},{"type":"Feature","id":"PARKINFOOGD.2008027","geometry":{"type":"Point","coordinates":[16.36734599,48.22338595]},"geometry_name":"SHAPE","properties":{"OBJECTID":2008027,"ANL_NAME":"Diana-Budisavljevic-Park","BEZIRK":9,"FLAECHE":"18.760 m²","OEFF_ZEITEN":"0:00-24:00","SPIELEN_IM_PARK":"Ja","WASSER_IM_PARK":"Ja","HUNDE_IM_PARK":"Nein","TELEFON":"01 4000 8042","WEBLINK1":"http://www.wien.gv.at/umwelt/parks/anlagen/index.html","SE_ANNO_CAD_DATA":null}},{"type":"Feature","id":"PARKINFOOGD.2008028","geometry":{"type":"Point","coordinates":[16.35260359,48.22946394]},"geometry_name":"SHAPE","properties":{"OBJECTID":2008028,"ANL_NAME":"Helene-Deutsch-Park","BEZIRK":9,"FLAECHE":"3.511 m²","OEFF_ZEITEN":"6:50-20:30","SPIELEN_IM_PARK":"Ja","WASSER_IM_PARK":"Ja","HUNDE_IM_PARK":"Nein","TELEFON":"01 4000 8042","WEBLINK1":"http://www.wien.gv.at/umwelt/parks/anlagen/index.html","SE_ANNO_CAD_DATA":null}},{"type":"Feature","id":"PARKINFOOGD.2008029","geometry":{"type":"Point","coordinates":[16.27374751,48.1938132]},"geometry_name":"SHAPE","properties":{"OBJECTID":2008029,"ANL_NAME":"PA Hochsatzengasse","BEZIRK":14,"FLAECHE":"4.005 m²","OEFF_ZEITEN":"0:00-24:00","SPIELEN_IM_PARK":"Ja","WASSER_IM_PARK":"Ja","HUNDE_IM_PARK":"Nein","TELEFON":"01 4000 8042","WEBLINK1":"http://www.wien.gv.at/umwelt/parks/anlagen/index.html","SE_ANNO_CAD_DATA":null}},{"type":"Feature","id":"PARKINFOOGD.2008030","geometry":{"type":"Point","coordinates":[16.224797,48.21457742]},"geometry_name":"SHAPE","properties":{"OBJECTID":2008030,"ANL_NAME":"PA Cottagestraße","BEZIRK":14,"FLAECHE":"857 m²","OEFF_ZEITEN":"0:00-24:00","SPIELEN_IM_PARK":"Nein","WASSER_IM_PARK":"Nein","HUNDE_IM_PARK":"Nein","TELEFON":"01 4000 8042","WEBLINK1":"http://www.wien.gv.at/umwelt/parks/anlagen/index.html","SE_ANNO_CAD_DATA":null}},{"type":"Feature","id":"PARKINFOOGD.2008031","geometry":{"type":"Point","coordinates":[16.28278232,48.20565031]},"geometry_name":"SHAPE","properties":{"OBJECTID":2008031,"ANL_NAME":"PA Antaeusgasse","BEZIRK":14,"FLAECHE":"846 m²","OEFF_ZEITEN":"0:00-24:00","SPIELEN_IM_PARK":"Ja","WASSER_IM_PARK":"Nein","HUNDE_IM_PARK":"Nein","TELEFON":"01 4000 8042","WEBLINK1":"http://www.wien.gv.at/umwelt/parks/anlagen/index.html","SE_ANNO_CAD_DATA":null}},{"type":"Feature","id":"PARKINFOOGD.2008032","geometry":{"type":"Point","coordinates":[16.26975798,48.18907845]},"geometry_name":"SHAPE","properties":{"OBJECTID":2008032,"ANL_NAME":"PA Sommerergasse","BEZIRK":13,"FLAECHE":"1.122 m²","OEFF_ZEITEN":"0:00-24:00","SPIELEN_IM_PARK":"Ja","WASSER_IM_PARK":"Nein","HUNDE_IM_PARK":"Nein","TELEFON":"01 4000 8042","WEBLINK1":"http://www.wien.gv.at/umwelt/parks/anlagen/index.html","SE_ANNO_CAD_DATA":null}},{"type":"Feature","id":"PARKINFOOGD.2008033","geometry":{"type":"Point","coordinates":[16.29626814,48.18140441]},"geometry_name":"SHAPE","properties":{"OBJECTID":2008033,"ANL_NAME":"Katharina-Schratt-Park","BEZIRK":13,"FLAECHE":"1.762 m²","OEFF_ZEITEN":"0:00-24:00","SPIELEN_IM_PARK":"Nein","WASSER_IM_PARK":"Nein","HUNDE_IM_PARK":"Nein","TELEFON":"01 4000 8042","WEBLINK1":"http://www.wien.gv.at/umwelt/parks/anlagen/index.html","SE_ANNO_CAD_DATA":null}},{"type":"Feature","id":"PARKINFOOGD.2008034","geometry":{"type":"Point","coordinates":[16.26539517,48.16694462]},"geometry_name":"SHAPE","properties":{"OBJECTID":2008034,"ANL_NAME":"PA Jenbachgasse","BEZIRK":13,"FLAECHE":"1.024 m²","OEFF_ZEITEN":"0:00-24:00","SPIELEN_IM_PARK":"Nein","WASSER_IM_PARK":"Nein","HUNDE_IM_PARK":"Nein","TELEFON":"01 4000 8042","WEBLINK1":"http://www.wien.gv.at/umwelt/parks/anlagen/index.html","SE_ANNO_CAD_DATA":null}},{"type":"Feature","id":"PARKINFOOGD.2008035","geometry":{"type":"Point","coordinates":[16.27968991,48.16922492]},